City,Lat,Lng,Max Temp,Humidity,Cloudiness,Wind Speed,Country,Date
Margate,51.38,1.39,57.99,73,12,7.0,GB,1604120447
Jamestown,42.1,-79.24,34.0,92,90,5.82,US,1604120192
Muroto-misakicho,33.28,134.15,68.0,37,20,9.17,JP,1604120533
Puerto Ayora,-0.74,-90.35,70.0,91,90,5.01,EC,1604120385
Punta Arenas,-53.15,-70.92,42.8,87,75,6.93,CL,1604120374
Busselton,-33.65,115.33,73.0,55,100,5.99,AU,1604120410
Djibouti,11.5,42.5,82.4,78,20,3.36,DJ,1604120413
North Bend,43.41,-124.22,55.0,93,1,4.7,US,1604120293
Longyearbyen,78.22,15.64,17.6,72,20,3.36,SJ,1604120424
Tuktoyaktuk,69.45,-133.04,1.4,91,75,4.7,CA,1604120396
Hilo,19.73,-155.09,78.8,78,90,4.7,US,1604120405
Ushuaia,-54.8,-68.3,50.0,71,75,12.75,AR,1604120386
Barrow,71.29,-156.79,8.6,84,1,8.05,US,1604120413
Makakilo City,21.35,-158.09,80.6,74,40,11.41,US,1604120472
Cape Town,-33.93,18.42,57.99,62,0,18.34,ZA,1604120389
Ocós,14.51,-92.19,75.2,100,20,7.29,GT,1604120561
Bluff,-46.6,168.33,52.0,86,100,17.0,NZ,1604120438
Atherton,53.52,-2.49,59.0,80,100,10.0,GB,1604120562
Hobart,-42.88,147.33,71.01,59,40,16.11,AU,1604120396
Klaksvík,62.23,-6.59,46.4,87,27,12.75,FO,1604120467
Rheinau,48.87,8.2,52.0,93,75,3.36,DE,1604120564
Muros,42.78,-9.06,63.0,89,99,11.99,ES,1604120564
Garden City,42.33,-83.33,37.99,55,90,3.36,US,1604120565
Kapaa,22.08,-159.32,78.8,65,75,4.7,US,1604120407
Nuuk,64.18,-51.72,21.2,79,49,6.93,GL,1604120441
Rohri,27.69,68.9,68.0,82,0,1.54,PK,1604120566
Fairbanks,64.84,-147.72,10.99,85,90,2.26,US,1604120253
Saint-Philippe,-21.36,55.77,71.6,53,75,18.34,RE,1604120433
Alofi,-19.06,-169.92,73.4,94,70,13.87,NU,1604120497
Mataura,-46.19,168.86,53.01,85,100,18.99,NZ,1604120390
Whitehaven,54.55,-3.58,55.99,91,100,25.01,GB,1604120568
Newtonmore,57.07,-4.12,46.0,81,75,3.36,GB,1604120568
Guangzhou,23.12,113.25,80.01,54,20,4.47,CN,1604120568
Fort Nelson,58.81,-122.7,15.8,92,20,4.7,CA,1604120507
Albany,42.6,-73.97,30.99,100,43,3.71,US,1604120221
Cabo San Lucas,22.89,-109.91,73.99,69,20,6.93,MX,1604120432
Ponta do Sol,32.67,-17.1,66.2,68,0,16.11,PT,1604120570
Mount Isa,-20.73,139.5,91.4,14,0,13.87,AU,1604120413
Hope,33.67,-93.59,48.2,76,1,4.7,US,1604120404
Hermanus,-34.42,19.23,51.01,86,0,1.99,ZA,1604120391
Port Elizabeth,-33.92,25.57,55.4,82,75,6.93,ZA,1604120438
Tuatapere,-46.13,167.68,52.0,86,100,17.0,NZ,1604120543
Bayshore Gardens,27.43,-82.59,69.01,77,1,6.93,US,1604120572
Polson,47.69,-114.16,46.4,52,90,5.82,US,1604120572
Ancud,-41.87,-73.82,46.4,81,0,2.24,CL,1604120542
Kahului,20.89,-156.47,82.4,58,20,17.22,US,1604120415
George Town,5.41,100.34,87.8,70,20,6.93,MY,1604120403
East London,-33.02,27.91,57.2,87,75,6.93,ZA,1604120395
Bereda,43.27,-7.54,63.0,88,75,13.87,ES,1604120574
Whitehorse,60.72,-135.05,17.6,85,90,6.93,CA,1604120575
Nikolskoye,59.7,30.79,44.6,93,90,6.71,RU,1604120427
Azua,18.45,-70.73,59.0,1,99,4.38,DO,1604120575
Yellowknife,62.46,-114.35,12.99,92,75,8.05,CA,1604120216
Thompson,55.74,-97.86,17.6,78,90,9.17,CA,1604120442
Cayenne,4.93,-52.33,78.8,100,20,2.24,GF,1604120408
The Pas,53.83,-101.25,24.8,92,90,14.99,CA,1604120577
Lac du Bonnet,50.25,-96.06,37.99,74,100,20.8,CA,1604120398
Lapua,62.97,23.01,39.2,100,90,5.82,FI,1604120578
Plouzané,48.38,-4.62,59.0,87,90,24.16,FR,1604120578
Kristiansund,63.11,7.73,42.8,75,79,14.99,NO,1604120578
Kasangulu,-4.59,15.17,73.4,94,75,1.92,CD,1604120579
Bethel,41.37,-73.41,30.0,92,1,3.36,US,1604120428
Talnakh,69.49,88.4,14.0,78,75,29.08,RU,1604120402
Metković,43.05,17.65,41.0,93,20,2.24,HR,1604120582
Palmer,42.16,-72.33,25.0,92,1,1.88,US,1604120583
Bambous Virieux,-20.34,57.76,73.99,49,20,14.99,MU,1604120498
Saint George,37.1,-113.58,59.0,21,1,5.82,US,1604120385
New Norfolk,-42.78,147.06,71.01,32,28,4.0,AU,1604120387
Mercedes,-34.65,-59.43,50.0,80,0,1.99,AR,1604120392
Ambatolampy,-19.38,47.42,57.2,67,75,11.41,MG,1604120586
Kathmandu,27.72,85.32,75.2,50,20,2.24,NP,1604120565
Ingham,42.6,-84.38,33.8,69,90,1.39,US,1604120586
Kwinana,-32.25,115.77,73.99,60,100,5.82,AU,1604120587
Melito di Porto Salvo,37.92,15.77,64.0,79,22,9.42,IT,1604120587
Świdwin,53.77,15.78,45.0,96,96,7.49,PL,1604120588
Bari,41.12,16.85,52.0,93,0,4.7,IT,1604120589
Saint Paul Harbor,57.79,-152.41,35.6,59,90,10.29,US,1604120388
Carnarvon,-24.87,113.63,78.8,65,90,18.34,AU,1604120417
San Jose,37.34,-121.89,59.0,82,40,3.36,US,1604120522
Necochea,-38.55,-58.74,51.01,75,0,8.99,AR,1604120591
Belyy Yar,53.6,91.39,35.6,93,75,6.71,RU,1604120591
Geraldton,-28.77,114.6,73.4,60,90,16.11,AU,1604120453
Taiyuan,37.87,112.56,57.2,28,0,6.71,CN,1604120592
Morgan City,29.7,-91.21,53.6,87,1,6.93,US,1604120592
Yakima,46.47,-120.67,46.99,52,1,9.17,US,1604120443
Half Moon Bay,37.46,-122.43,57.0,87,1,3.42,US,1604120422
Vaini,-21.2,-175.2,73.4,83,40,10.29,TO,1604120383
Vestmanna,62.16,-7.17,46.4,87,37,12.75,FO,1604120594
Kaitangata,-46.28,169.85,55.0,89,100,7.0,NZ,1604120594
Bredasdorp,-34.53,20.04,50.0,81,17,2.77,ZA,1604120399
Bonnyville,54.27,-110.73,26.6,85,90,9.17,CA,1604120382
Tambun,-6.26,107.07,91.99,55,20,10.29,ID,1604120596
Nhulunbuy,-12.23,136.77,91.4,52,0,12.75,AU,1604120596
Nouakchott,18.09,-15.98,71.6,73,0,14.99,MR,1604120597
Mount Gambier,-37.83,140.77,57.2,67,90,13.87,AU,1604120473
Pollachi,10.67,77.02,86.0,48,20,4.7,IN,1604120598
Souillac,-20.52,57.52,71.6,49,20,14.99,MU,1604120531
Alice Springs,-23.7,133.88,84.2,13,0,8.05,AU,1604120263
Ferrol,43.48,-8.24,64.0,88,75,13.87,ES,1604120599
Avarua,-21.21,-159.78,73.4,83,95,13.87,CK,1604120434
Norman Wells,65.28,-126.83,6.8,84,75,4.7,CA,1604120390
Algiers,36.75,3.04,46.4,93,0,3.36,DZ,1604120475
Broken Hill,-31.95,141.43,68.0,56,40,14.99,AU,1604120433
Changji,44.02,87.32,46.4,45,0,6.71,CN,1604120602
Şabyā,17.15,42.63,80.6,78,0,3.36,SA,1604120603
Isangel,-19.55,169.27,82.4,74,75,11.41,VU,1604120603
Copiapó,-27.37,-70.33,55.4,82,90,5.82,CL,1604120604
Tiarei,-17.53,-149.33,82.0,65,20,3.36,PF,1604120604
Naze,28.37,129.48,78.8,54,20,23.04,JP,1604120605
Rochester,43.15,-77.62,39.0,80,90,10.29,US,1604120508
Pitsunda,43.16,40.34,59.0,77,75,6.71,GE,1604120605
Bonavista,48.65,-53.11,35.01,86,100,4.7,CA,1604120606
Tema,5.67,-0.02,78.8,94,20,4.7,GH,1604120606
Karasjok,69.47,25.51,23.0,73,0,27.51,NO,1604120607
Ketchikan,55.34,-131.65,44.6,81,90,8.05,US,1604120432
Iqaluit,63.75,-68.51,17.6,78,90,9.17,CA,1604120474
Los Llanos de Aridane,28.66,-17.92,75.2,27,90,11.41,ES,1604120535
Hambantota,6.12,81.12,86.0,74,40,6.93,LK,1604120464
Guánica,17.97,-66.91,78.01,88,100,12.26,PR,1604120609
Lindi,-10.0,39.72,73.4,100,75,6.87,TZ,1604120609
Natal,-5.79,-35.21,77.0,88,75,3.36,BR,1604120610
Bemidji,47.47,-94.88,37.0,74,1,19.46,US,1604120402
Pisco,-13.7,-76.22,64.4,82,90,4.7,PE,1604120388
Careiro da Várzea,-3.2,-59.81,78.8,83,0,3.36,BR,1604120611
Orhangazi,40.49,29.31,51.8,93,75,3.36,TR,1604120612
Alenquer,-1.94,-54.74,77.0,94,20,2.24,BR,1604120612
Woodward,36.43,-99.39,51.8,57,1,20.8,US,1604120613
Zaragoza,41.66,-0.88,51.01,93,0,1.95,ES,1604120316
Aykhal,66.0,111.5,1.4,91,90,2.24,RU,1604120613
College,64.86,-147.8,10.4,85,90,4.7,US,1604120489
Arrondissement de Marseille,43.33,5.5,55.99,93,20,2.24,FR,1604120614
Havre-St-Pierre,50.23,-63.6,17.6,78,0,4.7,CA,1604120386
Portland,45.52,-122.68,48.99,78,45,2.33,US,1604120329
Byron Bay,-28.65,153.62,73.4,94,75,19.46,AU,1604120615
Camacha,33.08,-16.33,66.2,82,40,2.24,PT,1604120617
Brockville,44.58,-75.68,27.0,100,1,2.1,CA,1604120617
Cam Ranh,11.92,109.16,80.6,94,75,13.87,VN,1604120375
Maceió,-9.67,-35.74,75.2,94,75,2.24,BR,1604120577
Fort Atkinson,42.93,-88.84,30.0,57,0,7.49,US,1604120619
Touros,-5.2,-35.46,75.2,88,40,3.36,BR,1604120540
Viedma,-40.81,-63.0,59.0,40,1,4.0,AR,1604120349
Elektrogorsk,55.88,38.79,41.0,93,75,4.47,RU,1604120620
Humboldt,40.67,-123.92,50.0,93,1,0.87,US,1604120620
Erzurum Province,40.0,41.5,48.2,39,75,3.36,TR,1604120621
Port Hedland,-20.32,118.57,91.4,43,0,19.46,AU,1604120388
Torbay,47.67,-52.73,34.0,64,90,10.29,CA,1604120467
Dunedin,-45.87,170.5,55.0,88,100,1.99,NZ,1604120622
Kearney,40.7,-99.08,50.0,61,1,10.29,US,1604120622
Laguna,38.42,-121.42,57.0,66,1,2.62,US,1604120622
Saint Anthony,45.02,-93.22,39.2,59,1,12.75,US,1604120509
Mar del Plata,-38.0,-57.56,51.01,93,0,6.93,AR,1604120391
Ilulissat,69.22,-51.1,19.4,73,98,2.24,GL,1604120460
Zatoka,46.07,30.47,51.8,93,90,11.18,UA,1604120623
Władysławowo,54.79,18.4,39.99,100,40,2.24,PL,1604120625
Junction City,39.03,-96.83,53.01,62,1,8.05,US,1604120625
Lubao,14.92,120.55,89.6,55,75,11.41,PH,1604120625
Cabañas,22.98,-82.92,77.0,100,75,3.36,CU,1604120626
Coyhaique,-45.58,-72.07,46.4,75,0,4.7,CL,1604120426
Hong Kong,22.29,114.16,77.0,62,31,1.99,HK,1604120386
Rapid City,44.08,-103.23,62.01,32,1,6.93,US,1604120627
Ridgecrest,35.62,-117.67,59.0,23,0,1.99,US,1604120465
Boyarka,50.32,30.3,44.6,93,90,8.95,UA,1604120628
Kenai,60.55,-151.26,27.0,67,1,6.93,US,1604120628
Rexburg,43.83,-111.79,53.6,25,40,13.87,US,1604120479
Eching,48.3,11.62,50.0,87,75,4.7,DE,1604120629
Heihe,50.24,127.49,37.4,69,20,8.95,CN,1604120586
Neuquén,-38.95,-68.06,60.8,48,0,2.24,AR,1604120265
Burns Lake,54.23,-125.75,28.4,86,98,1.12,CA,1604120404
Laas,46.62,10.7,42.8,28,0,2.24,IT,1604120534
Santo Amaro das Brotas,-10.79,-37.05,77.0,83,75,8.05,BR,1604120630
Peniche,39.36,-9.38,59.0,91,36,1.52,PT,1604120538
Termez,37.22,67.28,51.8,27,0,2.24,UZ,1604120631
Snihurivka,47.08,32.81,48.2,87,100,6.71,UA,1604120631
Le Robert,14.68,-60.94,82.4,78,75,12.75,MQ,1604120632
Lompoc,34.64,-120.46,57.2,87,90,3.36,US,1604120453
High Level,58.52,-117.14,24.8,100,90,9.17,CA,1604120633
Kruisfontein,-34.0,24.73,53.01,92,0,2.53,ZA,1604120440
Malé,4.17,73.51,86.0,74,40,4.7,MV,1604120628
Galveston,29.37,-94.97,63.0,63,1,6.93,US,1604120398
Carman,49.5,-98.0,39.2,81,100,21.92,CA,1604120417
Fukuechō,32.69,128.84,64.4,45,20,5.82,JP,1604120634
Saint-François,46.42,3.91,37.4,100,90,1.12,FR,1604120635
Luang Prabang,19.89,102.13,78.8,78,90,2.24,LA,1604120636
Vila Velha,-20.33,-40.29,75.2,94,90,6.93,BR,1604120416
Sitka,57.05,-135.33,46.4,87,90,13.87,US,1604120637
Coronado,32.69,-117.18,64.4,88,40,3.4,US,1604120637
Alamosa,37.47,-105.87,33.8,86,1,1.61,US,1604120638
Asău,46.43,26.4,42.01,97,100,3.18,RO,1604120638
Saint-Leu,-21.15,55.28,71.6,53,75,18.34,RE,1604120524
Hay River,60.82,-115.8,21.2,79,100,2.24,CA,1604120638
City of San Pedro,14.35,121.02,91.0,55,40,11.41,PH,1604120452
Bathsheba,13.22,-59.52,80.6,88,40,16.11,BB,1604120394
Province of Mantua,45.17,10.78,46.4,93,0,3.36,IT,1604120640
Arrondissement de Saverne,48.83,7.25,50.0,100,75,3.36,FR,1604120640
Calama,-22.47,-68.93,44.6,28,0,14.99,CL,1604120382
La Pintada,5.75,-75.61,55.4,100,40,2.24,CO,1604120641
Narsaq,60.92,-46.05,23.0,79,89,3.36,GL,1604120446
Nemuro,43.32,145.57,51.8,62,40,9.17,JP,1604120642
Akdepe,42.06,59.38,42.8,48,0,9.17,TM,1604120642
Shelbyville,35.48,-86.46,42.8,100,27,3.36,US,1604120364
Tasiilaq,65.61,-37.64,32.0,97,100,20.8,GL,1604120437
Clyde,41.3,-82.98,37.0,66,0,2.48,US,1604120426
Yeppoon,-23.13,150.73,89.6,43,7,13.87,AU,1604120644
Seoul,37.57,126.98,64.4,51,20,3.36,KR,1604120476
Kiryat Gat,31.61,34.76,73.0,100,70,5.61,IL,1604120505
Labuan,5.28,115.24,84.2,79,20,2.24,MY,1604120468
Hasaki,35.73,140.83,68.0,45,20,12.75,JP,1604120646
Santa Maria,-29.68,-53.81,60.8,82,90,8.05,BR,1604120646
Saint-Pierre,-21.34,55.48,71.6,53,75,18.34,RE,1604120647
Minsk,53.9,27.57,41.0,100,75,2.24,BY,1604120451
Manaus,-3.1,-60.02,78.8,83,0,3.36,BR,1604120647
Halifax,44.65,-63.57,35.6,74,100,8.05,CA,1604120647
Porto-Novo,6.5,2.6,80.6,88,40,10.29,BJ,1604120648
Abhā,18.22,42.51,57.2,51,0,1.3,SA,1604120648
Husavik,66.04,-17.34,42.8,69,20,12.75,IS,1604120409
Almeria,37.17,-2.33,64.99,45,0,12.75,ES,1604120650
Dharmadam,11.78,75.43,84.2,79,20,2.24,IN,1604120650
Mahébourg,-20.41,57.7,71.6,49,20,14.99,MU,1604120106
Pahrump,36.21,-115.98,55.0,27,0,1.01,US,1604120651
Oranjestad,12.52,-70.03,80.6,88,40,3.36,AW,1604120651
Papillion,41.15,-96.04,46.99,65,1,5.82,US,1604120396
Manta,-0.95,-80.73,73.4,83,75,5.82,EC,1604120653
General Roca,-39.03,-67.58,60.8,48,0,2.24,AR,1604120653
Henties Bay,-22.12,14.28,54.0,91,40,4.0,NA,1604120653
Ryazan,54.62,39.74,42.01,80,49,1.01,RU,1604120654
La Ronge,55.1,-105.28,23.0,85,100,20.8,CA,1604120654
Faya,18.39,42.45,57.2,55,0,1.1,SA,1604120655
Longview,32.5,-94.74,46.0,81,1,4.7,US,1604120517
Hailey,43.52,-114.32,55.4,30,5,3.36,US,1604120431
Haines Junction,60.75,-137.51,17.6,72,100,1.12,CA,1604120656
Ontario,34.06,-117.65,69.8,46,20,1.23,US,1604120656
Saldanha,-33.01,17.94,48.2,76,0,5.82,ZA,1604120397
Nishihara,26.18,127.76,80.6,57,40,18.34,JP,1604120657
Knesselare,51.13,3.46,55.0,88,53,5.99,BE,1604120658
Krasnoarmeysk,51.02,45.7,45.0,71,100,1.01,RU,1604120658
Hohhot,40.81,111.65,46.4,20,0,13.42,CN,1604120659
Boa Vista,2.82,-60.67,77.0,83,90,14.99,BR,1604120449
Clyde River,70.47,-68.59,15.8,85,90,6.93,CA,1604120660
Minnedosa,50.25,-99.84,33.8,100,75,6.93,CA,1604120660
Ružomberok,49.07,19.31,53.6,87,75,8.05,SK,1604120391
San Francisco,37.77,-122.42,57.2,81,1,10.29,US,1604120661
San Patricio,28.02,-97.52,55.0,93,1,5.59,US,1604120387
Lata,40.16,-8.33,61.0,93,0,2.24,PT,1604120505
Kęty,49.88,19.22,45.0,3,100,8.01,PL,1604120662
Waipawa,-41.41,175.52,64.4,82,98,24.16,NZ,1604120662
Hull,53.74,-0.34,59.0,100,100,5.82,GB,1604120662
Englehart,47.82,-79.87,17.6,78,1,5.82,CA,1604120663
Puerto Escondido,15.85,-97.07,75.2,53,75,5.82,MX,1604120536
Honiara,-9.43,159.95,87.8,66,20,6.93,SB,1604120664
Santa Isabel,-23.32,-46.22,60.8,87,90,10.29,BR,1604120665
Laćarak,45.0,19.57,51.01,91,100,1.01,RS,1604120665
Ponta Delgada,37.73,-25.67,69.8,94,75,16.11,PT,1604120665
Libertador General San Martín,-23.81,-64.79,63.0,72,15,1.99,AR,1604120665
Coquimbo,-29.95,-71.34,53.6,87,90,5.82,CL,1604120285
Karaton,-6.34,106.1,91.4,55,20,10.29,ID,1604120666
Roald,62.58,6.13,46.4,75,48,8.05,NO,1604120666
Muscat,23.61,58.59,77.0,61,0,2.24,OM,1604120667
Moose Factory,51.26,-80.61,28.4,58,90,9.17,CA,1604120667
Morant Bay,17.88,-76.41,82.4,78,20,3.36,JM,1604120668
La Rioja,42.25,-2.5,45.0,100,0,6.78,ES,1604120668
Caibarién,22.52,-79.47,75.2,100,0,5.82,CU,1604120669
Parchim,53.43,11.85,57.0,98,100,8.01,DE,1604120669
Aklavik,68.22,-135.01,1.4,91,99,3.36,CA,1604120407
Thornton,39.87,-104.97,50.0,42,5,6.85,US,1604120583
Mandan,46.83,-100.89,41.0,100,1,13.87,US,1604120670
Kuroishi,40.64,140.59,60.01,50,40,5.82,JP,1604120671
Port Hardy,50.7,-127.42,46.4,100,5,3.36,CA,1604120442
Bushehr,28.97,50.84,69.8,68,0,4.7,IR,1604120671
Olds,51.78,-114.1,35.6,93,99,21.92,CA,1604120672
Esperance,-33.87,121.9,87.8,22,13,17.22,AU,1604120672
Porto Santo,33.07,-16.34,66.2,82,40,2.24,PT,1604120672
Pangai,-19.8,-174.35,77.0,78,75,16.11,TO,1604120672
Katsuura,35.13,140.3,66.99,48,20,8.05,JP,1604120473
Shelburne,44.08,-80.2,26.01,85,1,5.17,CA,1604120674
Springfield,37.22,-93.3,48.2,70,1,10.29,US,1604120433
Dohār,23.59,90.15,82.4,74,75,5.82,BD,1604120674
Ürümqi,43.8,87.6,46.4,45,0,6.71,CN,1604120674
Mahon,39.89,4.27,59.0,93,0,4.7,ES,1604120676
Lucea,18.45,-78.17,82.4,78,20,1.12,JM,1604120676
Nome,64.5,-165.41,21.2,67,1,10.29,US,1604120504
Ko Samui,9.54,99.94,89.6,62,20,9.17,TH,1604120678
Hamilton,39.18,-84.53,39.99,93,1,3.96,US,1604120475
Namie,37.48,141.0,62.01,49,0,1.99,JP,1604120679
San Javier,37.81,-0.84,57.0,100,0,3.36,ES,1604120679
Blythe,33.61,-114.6,66.2,20,1,4.7,US,1604120679
Huntingdon,52.33,-0.19,57.99,88,100,10.0,GB,1604120680
Mogadishu,2.04,45.34,80.6,69,75,10.29,SO,1604120680
Almaznyy,48.04,40.05,57.2,93,40,6.71,RU,1604120680
Nicosia,35.17,33.37,64.99,77,20,8.05,CY,1604120463
Biabou,13.2,-61.13,82.4,78,40,24.16,VC,1604120682
Pitimbu,-7.47,-34.81,77.0,88,40,3.36,BR,1604120515
Oktyabr'skoye,43.06,44.74,42.8,93,94,4.47,RU,1604120391
Brownsville,25.9,-97.5,60.8,82,1,4.7,US,1604120494
Vicuña,-30.03,-70.71,53.6,87,90,5.82,CL,1604120685
Ulaanbaatar,47.91,106.88,26.6,58,0,8.95,MN,1604120405
Brae,60.4,-1.35,50.0,76,99,13.87,GB,1604120587
Keetmanshoop,-26.58,18.13,62.6,29,56,3.36,NA,1604120685
Port Macquarie,-31.43,152.92,80.01,69,36,1.99,AU,1604120430
Buraidah,26.33,43.98,55.4,47,0,2.24,SA,1604120686
Miguel Hidalgo,19.42,-99.2,60.8,55,75,9.17,MX,1604120687
Adelanto,34.58,-117.41,57.0,25,0,3.0,US,1604120687
Sabzawār,36.21,57.68,48.2,29,0,9.17,IR,1604120685
Northam,51.03,-4.22,57.99,92,99,13.0,GB,1604120443
Assiut,27.18,31.18,64.4,77,0,11.41,EG,1604120688
Kitimat,54.05,-128.65,35.6,93,75,11.41,CA,1604120689
Yulara,-25.24,130.99,84.2,10,36,5.82,AU,1604120544
Provost,52.35,-110.27,33.8,84,95,19.46,CA,1604120690
Warrington,53.39,-2.58,59.0,87,90,17.22,GB,1604120599
Bamberg,49.88,10.89,53.01,61,67,2.66,DE,1604120691
Purranque,-40.92,-73.17,50.0,71,0,2.24,CL,1604120691
Port Hawkesbury,45.62,-61.35,33.01,88,90,3.36,CA,1604120692
Ostrów Wielkopolski,51.66,17.81,54.0,77,100,4.41,PL,1604120692
Mareeba,-17.0,145.43,90.0,52,6,11.01,AU,1604120692
Santa Cruz de La Palma,28.68,-17.76,75.2,27,90,11.41,ES,1604120693
Marabu,4.41,114.01,87.8,70,40,2.24,MY,1604120693
Sand,50.0,10.6,52.0,91,53,2.86,DE,1604120694
La Romana,18.43,-68.97,80.6,83,75,6.93,DO,1604120694
Alta,69.97,23.27,24.8,73,0,26.4,NO,1604120695
Morón,-34.65,-58.62,57.99,98,0,3.36,AR,1604120421
Goderich,43.75,-81.72,33.8,74,94,5.82,CA,1604120696
Madoc,44.51,-77.47,27.0,55,0,1.92,CA,1604120696
Dauphin,51.15,-100.05,39.2,80,90,3.36,CA,1604120697
Kollam,8.88,76.6,86.0,66,40,3.36,IN,1604120697
Quillota,-32.88,-71.27,62.01,65,4,1.72,CL,1604120697
Gainesville,29.65,-82.32,55.99,93,1,3.44,US,1604120550
Kortkeros,61.81,51.58,32.0,97,90,6.71,RU,1604120699
Bairiki Village,1.33,172.98,86.0,62,20,11.41,KI,1604120662
Duluth,46.78,-92.11,34.0,69,1,10.51,US,1604120700
Yārāda,17.65,83.27,86.0,51,80,6.93,IN,1604120701
Praxédis Guerrero,31.37,-106.02,59.0,34,20,6.93,MX,1604120701
Rusnė,55.3,21.38,46.4,87,75,4.47,LT,1604120703
Santa Marta,11.24,-74.2,79.0,89,72,3.31,CO,1604120704
Kuching,1.55,110.33,89.6,62,40,4.7,MY,1604120522
Tandil,-37.32,-59.13,48.0,74,0,5.12,AR,1604120705
Marsá Maţrūḩ,31.35,27.25,69.8,64,75,5.82,EG,1604120419
Flinders,-34.58,150.86,68.0,72,41,8.99,AU,1604120436
Mt. Pleasant,32.79,-79.86,60.8,71,1,5.82,US,1604120706
Maun,-19.98,23.42,77.0,20,0,12.75,BW,1604120707
Ucluelet,48.93,-125.55,43.0,88,0,5.75,CA,1604120675
Ardakān,32.31,54.02,57.2,22,0,4.7,IR,1604120640
Mayo,38.89,-76.51,48.0,70,90,9.17,US,1604120708
Chabahar,25.29,60.64,75.2,29,0,9.17,IR,1604120708
Nadadores,27.05,-101.6,55.99,54,70,2.28,MX,1604120710
Santa Catalina,9.33,122.86,89.6,70,75,4.7,PH,1604120710
Río Gallegos,-51.62,-69.22,46.4,75,0,3.36,AR,1604120710
San Ignacio,17.16,-89.07,73.4,94,90,6.93,BZ,1604120711
Revda,56.8,59.93,32.0,81,0,9.66,RU,1604120713
Great Bend,38.36,-98.76,52.0,66,1,13.87,US,1604120714
Palmas,-10.21,-48.36,78.8,100,75,4.7,BR,1604120715
Cache Creek,50.81,-121.32,50.0,64,1,4.7,CA,1604120715
Yangi Marg`ilon,40.43,71.72,51.8,23,0,2.24,UZ,1604120419
Horki,54.29,30.98,44.6,100,90,4.47,BY,1604120716
Christchurch,-43.53,172.63,78.8,31,24,18.34,NZ,1604120717
Fortuna,40.6,-124.16,50.0,93,1,2.68,US,1604120527
Havelock,34.88,-76.9,57.0,62,1,12.75,US,1604120421
Port-Cartier,50.03,-66.87,28.4,68,1,8.05,CA,1604120719
Maxixe,-23.86,35.35,75.2,78,40,5.82,MZ,1604120720
Vila Franca do Campo,37.72,-25.43,69.8,94,75,16.11,PT,1604120474
Abu Dhabi,24.47,54.37,77.0,78,0,2.24,AE,1604120510
Kavaratti,10.57,72.64,84.2,79,40,4.7,IN,1604120385
Abrau-Dyurso,44.69,37.59,55.4,87,98,6.71,RU,1604120722
Maitum,6.04,124.5,86.0,70,75,16.11,PH,1604120723
Mazagão,-0.12,-51.29,78.8,88,20,3.36,BR,1604120529
Mehrān,33.12,46.16,51.8,27,0,4.7,IR,1604120724
Newcastle,-32.93,151.78,78.8,29,40,18.34,AU,1604120561
Griffith,41.53,-87.42,30.2,86,1,4.5,US,1604120725
Andros Town,24.7,-77.77,80.6,83,40,3.36,BS,1604120726
Ýpsonas,34.69,32.96,64.4,63,0,2.24,CY,1604120728
Nador,35.17,-2.93,64.4,82,75,4.7,MA,1604120728
Moscow,55.75,37.62,37.0,100,44,2.24,RU,1604120479
Alibag,18.64,72.88,87.8,38,0,6.93,IN,1604120729
Gafanha da Encarnação,40.62,-8.73,61.0,82,38,8.84,PT,1604120730
Tautira,-17.73,-149.15,82.0,65,20,3.36,PF,1604120426
Nouadhibou,20.93,-17.03,66.2,93,75,14.99,MR,1604120526
Oyama,36.3,139.8,71.01,48,20,8.05,JP,1604120730
Lamar,33.67,-95.58,46.4,87,1,4.7,US,1604120731
Alexandria,31.22,29.96,66.2,88,40,3.36,EG,1604120665
Richmond,37.55,-77.46,48.2,76,75,9.17,US,1604120458
Nola,40.92,14.53,57.0,87,0,2.24,IT,1604120733
Zolotukhino,52.08,36.38,44.01,100,90,6.71,RU,1604120734
Yangjiang,21.85,111.97,79.0,62,22,8.93,CN,1604120574
Avera,33.19,-82.53,55.4,81,1,6.93,US,1604120410
Ulladulla,-35.35,150.47,66.0,77,40,5.82,AU,1604120734
Athabasca,54.72,-113.29,28.4,86,95,14.99,CA,1604120735
Carbonia,39.17,8.52,55.4,82,40,3.36,IT,1604120735
Susurluk,39.91,28.16,50.0,100,40,2.13,TR,1604120598
Cortez,37.35,-108.59,37.99,59,1,5.82,US,1604120605
Kununurra,-15.77,128.73,100.4,24,40,5.82,AU,1604120738
Anadyr,64.75,177.48,6.8,92,20,8.95,RU,1604120413
Porto Belo,-27.16,-48.55,63.0,85,44,10.0,BR,1604120523
Beisfjord,68.38,17.6,37.4,51,58,16.11,NO,1604120740
Kondol',52.82,45.06,41.0,75,100,6.44,RU,1604120740
Miramar,25.99,-80.23,78.8,100,90,4.7,US,1604120740
Arona,28.1,-16.68,80.6,18,0,17.22,ES,1604120740
Russell,32.35,-85.2,53.6,81,1,6.17,US,1604120741
Hervey Bay,-25.3,152.85,82.99,54,0,25.28,AU,1604120741
Urupês,-21.2,-49.29,64.4,68,0,12.75,BR,1604120743
Tau,59.07,5.9,42.8,93,20,4.7,NO,1604120743
Moindou,-21.69,165.68,87.8,48,90,6.93,NC,1604120743
Căneşti,45.4,26.6,42.8,93,90,5.82,RO,1604120744
Oistins,13.07,-59.53,80.6,88,40,16.11,BB,1604120745
Namtsy,62.72,129.67,-2.2,77,0,1.9,RU,1604120745
Stroud,51.75,-2.2,57.0,85,83,19.39,GB,1604120746
Mayskiy,47.69,40.1,57.2,93,40,6.71,RU,1604120746
Akureyri,65.68,-18.09,42.8,79,20,12.75,IS,1604120746
Guadalajara,20.67,-103.33,66.99,67,40,1.52,MX,1604120646
Praia,14.92,-23.51,77.0,78,0,21.92,CV,1604120747
Petropavlovsk-Kamchatskiy,53.05,158.65,39.2,93,90,6.71,RU,1604120747
Redmond,47.67,-122.12,50.0,83,67,5.12,US,1604120748
Kayerkan,69.35,87.76,14.0,78,75,29.08,RU,1604120748
Hirara,24.8,125.28,80.6,57,20,17.22,JP,1604120749
Wynyard,-41.0,145.72,64.0,59,4,8.99,AU,1604120750
Penzance,50.12,-5.54,57.2,93,100,29.97,GB,1604120510
Bayir,37.27,28.22,53.6,93,20,4.7,TR,1604120751
Killybegs,54.63,-8.45,57.99,94,100,17.0,IE,1604120448
Brenes,37.55,-5.87,57.99,87,0,2.24,ES,1604120751
Antananarivo,-18.91,47.54,57.2,67,75,11.41,MG,1604120562
Frontera,26.93,-101.45,55.99,54,52,1.77,MX,1604120752
Turaif,31.67,38.66,60.8,26,0,6.93,SA,1604120754
Riyadh,24.69,46.72,62.6,48,0,2.24,SA,1604120750
Narón,43.52,-8.15,64.0,88,75,13.87,ES,1604120755
Colares,38.8,-9.45,62.01,100,0,2.24,PT,1604120755
Sakété,6.74,2.66,80.6,88,40,10.29,BJ,1604120756
Manacapuru,-3.3,-60.62,78.8,88,0,5.82,BR,1604120759
‘Āhuimanu,21.44,-157.84,80.6,61,40,5.82,US,1604120760
Rockport,28.02,-97.05,60.8,76,1,4.7,US,1604120740
Orsk,51.2,58.57,30.2,86,0,4.47,RU,1604120683
Collie,-33.37,116.15,73.0,55,100,5.99,AU,1604120503
Broome,42.25,-75.83,30.2,80,90,1.3,US,1604120462
Harlingen,26.19,-97.7,59.0,87,1,3.36,US,1604120762
Rincon,32.3,-81.24,62.6,72,1,9.17,US,1604120763
San Juan de Abajo,20.82,-105.18,80.6,78,90,2.48,MX,1604120763
Baghdad,33.34,44.4,57.2,54,0,3.36,IQ,1604120685
Mabay,6.06,124.47,86.0,70,75,16.11,PH,1604120764
Kānke,23.43,85.32,80.6,44,0,4.7,IN,1604120765
Kubuta,-26.88,31.48,57.2,87,91,9.17,SZ,1604120765
LaBelle,26.76,-81.44,73.4,88,90,4.7,US,1604120765
Marshfield,44.67,-90.17,28.0,68,1,6.93,US,1604120505
Noumea,-22.28,166.46,87.8,48,90,6.93,NC,1604120148
Panguipulli,-39.63,-72.33,48.2,100,0,1.12,CL,1604120766
Terenos,-20.44,-54.86,68.0,88,75,11.41,BR,1604120766
Cairns,-16.92,145.77,88.0,62,40,8.05,AU,1604120393
Nixa,37.04,-93.29,46.99,83,19,1.99,US,1604120767
Skibbereen,51.55,-9.27,57.2,93,90,28.86,IE,1604120768
Elk City,35.41,-99.4,48.2,75,1,9.17,US,1604120768
Campo Verde,-20.42,-54.07,68.0,88,75,11.41,BR,1604120676
Pacific Grove,36.62,-121.92,55.4,87,1,3.36,US,1604120401
Prince Rupert,54.32,-130.32,46.4,87,90,9.17,CA,1604120396
North Canton,40.88,-81.4,39.2,69,90,3.36,US,1604120746
Bermejo,-32.88,-68.8,57.2,32,0,5.73,AR,1604120769
Ngong,-1.36,36.66,60.8,87,75,5.73,KE,1604120770
Salalah,17.02,54.09,77.0,36,0,4.7,OM,1604120427
Terme,41.21,36.97,60.8,87,75,2.24,TR,1604120771
Adelaide,-34.93,138.6,64.99,55,75,13.87,AU,1604120490
Bariloche,-41.15,-71.31,55.0,66,0,6.93,AR,1604120150
Gallup,35.53,-108.74,42.8,52,1,0.89,US,1604120773
Kerikeri,-35.23,173.95,69.01,90,52,5.99,NZ,1604120774
Rockhampton,-23.38,150.5,89.6,43,4,13.87,AU,1604120774
Sochi,43.6,39.73,59.0,77,75,6.71,RU,1604120561
Shchigry,51.88,36.9,44.01,100,90,6.71,RU,1604120775
Qeshm,26.96,56.27,78.8,50,0,4.7,IR,1604120775
Cutro,39.04,16.98,53.6,100,17,4.7,IT,1604120776
Farsund,58.09,6.8,46.0,84,51,1.01,NO,1604120776
Eufaula,31.89,-85.15,57.0,88,0,6.31,US,1604120502
Bandar-e Lengeh,26.56,54.88,77.0,78,0,6.93,IR,1604120777
Swift Current,50.28,-107.8,42.8,81,75,23.04,CA,1604120778
Rensvik,63.1,7.82,42.8,75,80,14.99,NO,1604120778
San Miguel de Tucumán,-26.82,-65.22,60.8,44,0,3.36,AR,1604120779
Vaxjo,56.88,14.81,42.8,100,95,8.05,SE,1604120779
Kerman,30.28,57.08,41.0,27,0,4.7,IR,1604120780
Tsimmerbude,54.67,20.13,46.4,87,75,4.47,RU,1604120781
Formosa,-26.18,-58.18,60.8,77,0,6.93,AR,1604120781
Slave Lake,55.28,-114.77,30.2,92,90,25.28,CA,1604120782
Iquique,-20.22,-70.14,60.8,77,20,6.93,CL,1604120570
Blackfoot,43.19,-112.34,55.4,24,40,14.99,US,1604120769
Cayambe,0.05,-78.13,53.6,87,75,3.36,EC,1604120784
Elmadağ,39.92,33.23,50.0,87,40,11.41,TR,1604120785
Iranshahr,27.2,60.68,69.8,9,0,1.1,IR,1604120786
Matane,48.83,-67.52,28.99,44,20,7.0,CA,1604120670
Cumberland,35.05,-78.87,54.0,54,1,14.99,US,1604120787
Gladbeck,51.57,6.98,57.0,98,100,5.01,DE,1604120788
Kalangala,-0.31,32.23,66.2,93,75,6.93,UG,1604120788
Moree,-29.47,149.85,78.8,22,40,18.7,AU,1604120788
Topeka,39.05,-95.68,51.8,62,1,10.29,US,1604120788
Seddon,-37.81,144.89,63.0,82,90,19.46,AU,1604120789
Zaton,53.29,83.81,33.8,86,75,8.95,RU,1604120789
Luk Pu,23.17,112.28,80.01,99,50,4.54,CN,1604120790
Roura,4.73,-52.33,78.8,100,20,2.24,GF,1604120790
Shimoda,34.67,138.95,62.6,48,20,17.22,JP,1604120444
Batemans Bay,-35.72,150.18,63.0,91,100,11.81,AU,1604120791
Ninghai,29.29,121.42,79.0,51,4,1.99,CN,1604120791
Norsup,-16.07,167.38,78.8,88,75,9.17,VU,1604120792
Kaeo,-35.1,173.78,69.01,90,59,5.99,NZ,1604120792
Raahe,64.68,24.48,25.0,100,90,10.29,FI,1604120793
Raleigh,35.77,-78.64,50.0,66,20,3.36,US,1604120720
Kailua,21.4,-157.74,80.6,61,40,5.82,US,1604120794
Tortolì,39.93,9.66,60.8,77,5,8.05,IT,1604120427
Jacmel,18.23,-72.53,82.4,74,99,8.05,HT,1604120796
Hobbs,32.7,-103.14,52.0,52,1,10.74,US,1604120595
Erzincan Province,39.75,39.5,64.4,36,75,12.75,TR,1604120797
Casablanca,33.59,-7.62,53.6,87,0,4.7,MA,1604120629
Worland,44.02,-107.96,50.0,48,1,10.29,US,1604120797
Opotiki,-38.08,177.28,64.99,96,99,5.01,NZ,1604120798
Matagami,49.75,-77.63,14.0,85,1,5.82,CA,1604120505
Abadan,38.05,58.21,50.0,39,0,2.24,TM,1604120799
Kungsbacka,57.49,12.08,51.01,93,75,8.05,SE,1604120799
Wagga Wagga,-35.12,147.37,64.4,63,97,9.17,AU,1604120799
Prijepolje,43.37,19.64,46.4,81,0,2.24,RS,1604120800
Najrān,17.49,44.13,60.8,24,0,4.7,SA,1604120450
Westport,41.14,-73.36,33.8,80,1,5.82,US,1604120409
Rome,43.21,-75.46,26.6,73,1,1.68,US,1604120800
Hanna,51.63,-111.9,35.01,78,78,18.01,CA,1604120801
Melville,40.79,-73.42,41.0,80,1,4.7,US,1604120801
Muhos,64.81,25.99,25.0,100,90,10.29,FI,1604120801
Odesa,46.48,30.73,51.8,93,90,11.18,UA,1604120802
Pout,14.77,-17.06,77.0,61,0,14.99,SN,1604120803
Luleå,65.58,22.15,24.8,100,12,2.24,SE,1604120709
Rengo,-34.42,-70.87,60.8,72,0,1.12,CL,1604120805
Ukiah,39.15,-123.21,57.2,41,1,2.53,US,1604120402
Tubualá,9.52,-79.03,77.0,94,40,4.7,PA,1604120806
Seinäjoki,62.79,22.83,39.2,100,90,5.82,FI,1604120807
Panama City,8.99,-79.52,80.6,88,38,4.7,PA,1604120808
Milledgeville,33.08,-83.23,54.0,86,0,6.82,US,1604120808
Grindavik,63.84,-22.43,42.8,81,75,25.28,IS,1604120458
Måløy,61.94,5.11,46.4,87,62,13.87,NO,1604120756
Ixtapa,20.7,-105.2,80.6,78,90,2.04,MX,1604120812
Kalāleh,37.38,55.49,62.6,39,0,4.63,IR,1604120813
Port Augusta,-32.5,137.77,66.2,59,90,16.11,AU,1604120814
Adrian,41.9,-84.04,35.6,64,90,1.66,US,1604120814
Port Huron,42.97,-82.42,33.8,59,90,6.93,US,1604120815
Kaharlyk,49.86,30.83,44.6,100,90,4.47,UA,1604120815
Shingū,33.73,135.98,66.2,48,20,4.7,JP,1604120817
Arrondissement de Pontivy,48.0,-3.0,57.99,100,90,10.29,FR,1604120817
Royan,45.63,-1.03,53.6,100,0,3.36,FR,1604120817
Kensington,-33.92,151.22,66.99,88,75,26.4,AU,1604120818
Pulandian,39.4,121.97,63.0,72,40,11.18,CN,1604120422
Coos Bay,43.37,-124.22,54.0,93,1,4.7,US,1604120818
Ginda,30.69,78.49,77.0,44,20,4.05,IN,1604120819
Estelle,29.85,-90.11,57.2,87,0,4.7,US,1604120819
Andenes,69.31,16.12,39.2,64,84,20.8,NO,1604120473
Gaza,31.5,34.47,73.0,100,62,7.34,PS,1604120821
Løgumkloster,55.06,8.96,53.01,95,62,1.99,DK,1604120822
Longyan,25.11,117.02,79.0,36,1,4.0,CN,1604120708
Teahupoo,-17.83,-149.27,82.0,65,20,3.36,PF,1604120823
Pascagoula,30.37,-88.56,51.8,81,1,9.66,US,1604120823
La Palma,33.85,-118.05,66.2,48,1,2.59,US,1604120824
Zlaté Moravce,48.39,18.4,57.0,93,100,12.75,SK,1604120825
Santa Lucía,27.91,-15.54,75.99,47,0,3.36,ES,1604120825
Alyangula,-13.85,136.42,78.8,69,75,17.22,AU,1604120825
Nantucket,41.28,-70.1,43.0,59,75,17.22,US,1604120826
Elko,41.0,-115.5,45.0,34,1,3.36,US,1604120540
Taiping,4.85,100.73,89.6,59,20,3.36,MY,1604120826
Karabulak,43.3,44.9,42.8,93,94,4.47,RU,1604120827
Morehead,37.27,-87.18,39.2,100,1,3.65,US,1604120827
Lufilufi,-13.87,-171.6,82.4,88,75,9.69,WS,1604120828
Fort Smith,35.39,-94.4,48.2,87,1,3.36,US,1604120828
Burnie,-41.07,145.92,64.0,59,11,8.99,AU,1604120828
Paralímni,35.04,33.98,66.0,82,20,5.82,CY,1604120828
Sioux Lookout,50.1,-91.92,30.2,80,90,9.17,CA,1604120829
Wyndham,37.7,-77.61,48.2,70,20,5.82,US,1604120829
Vernon,50.26,-119.27,44.6,75,29,2.24,CA,1604120830
Warrnambool,-38.38,142.48,61.0,71,90,1.01,AU,1604120830
Tacna,-18.01,-70.25,57.99,82,88,2.33,PE,1604120831
Homer,59.64,-151.55,28.0,45,1,9.17,US,1604120831
Brooks,50.58,-111.89,46.4,80,100,3.36,CA,1604120536
Comodoro Rivadavia,-45.87,-67.5,53.6,58,0,3.36,AR,1604120550
Hurghada,27.26,33.81,73.4,69,0,8.05,EG,1604120834
Santa Rosa,14.31,121.11,91.0,55,40,11.41,PH,1604120835
Praia da Vitória,38.73,-27.07,69.8,94,40,13.85,PT,1604120835
Kil,59.51,13.31,44.6,100,100,9.17,SE,1604120836
Nelson,-41.28,173.28,64.99,76,67,5.99,NZ,1604120837
Poli,-3.33,36.8,68.0,82,75,5.82,TZ,1604120837
Lakatoro,-16.1,167.42,78.8,88,75,9.17,VU,1604120837
Corowa,-36.03,146.38,63.0,75,34,4.0,AU,1604120838
Aransas Pass,27.91,-97.15,60.8,93,1,7.85,US,1604120838
Eureka,40.8,-124.16,48.0,93,1,2.35,US,1604120838
Ta Khmau,11.48,104.95,89.6,66,40,2.24,KH,1604120839
Adunaţi,45.13,25.62,39.0,82,70,2.44,RO,1604120839
Chapais,49.78,-74.85,5.0,92,1,4.7,CA,1604120839
Baiyin,36.56,104.21,46.4,31,0,4.47,CN,1604120839
Steamboat Springs,40.48,-106.83,39.2,80,1,1.97,US,1604120840
Stornoway,58.21,-6.39,48.2,76,100,16.11,GB,1604120536
Raudeberg,61.99,5.14,46.0,85,59,13.94,NO,1604120841
Opaka,43.45,26.17,35.6,100,79,3.36,BG,1604120842
Grenå,56.42,10.88,50.0,100,32,1.12,DK,1604120843
‘Ewa Beach,21.32,-158.01,80.6,74,40,11.41,US,1604120435
Banepā,27.63,85.52,75.2,50,20,2.24,NP,1604120843
Nagua,19.38,-69.85,73.99,98,99,4.03,DO,1604120844
Sterling,39.01,-77.43,43.0,80,40,7.61,US,1604120845
Imbituba,-28.24,-48.67,62.6,88,75,8.05,BR,1604120846
Gisborne,-38.65,178.0,71.01,60,100,10.0,NZ,1604120846
Rovaniemi,66.5,25.72,21.2,92,0,3.36,FI,1604120847
Williamsburg,37.27,-76.71,50.0,93,1,8.37,US,1604120847
Quatre Cocos,-20.21,57.76,73.99,49,20,14.99,MU,1604120447
Saraj,42.0,21.33,39.2,100,20,2.24,MK,1604120848
Bay City,43.59,-83.89,35.6,51,90,3.36,US,1604120677
Virginia Beach,36.85,-75.98,53.6,66,1,14.99,US,1604120287
Balyqshy,47.07,51.87,44.6,48,0,20.13,KZ,1604120850
Duarte,34.14,-117.98,68.0,40,0,6.93,US,1604120850
Glenwood Springs,39.55,-107.32,37.0,68,1,12.75,US,1604120434
Bogashevo,56.37,85.14,35.01,100,90,6.71,RU,1604120851
Rayachoti,14.05,78.75,84.2,70,0,4.18,IN,1604120852
Georgiyevka,43.04,74.71,42.8,60,0,2.24,KZ,1604120852
Porto Velho,-8.76,-63.9,78.8,94,75,2.24,BR,1604120652
Esterhazy,50.65,-102.08,46.4,70,90,17.22,CA,1604120853
Markova,48.68,24.41,41.0,100,75,3.6,UA,1604120854
Pineville,31.32,-92.43,50.0,81,1,4.7,US,1604120854
Arrondissement de Cholet,47.17,-1.0,48.0,95,0,9.75,FR,1604120854
Astoria,46.19,-123.83,52.0,93,1,4.7,US,1604120851
Liepāja,56.54,21.04,42.8,100,90,2.24,LV,1604120855
Valleyview,55.07,-117.29,26.6,86,62,4.7,CA,1604120855
Assiniboia,49.63,-105.98,44.6,75,51,20.8,CA,1604120797
Storforshei,66.4,14.52,37.0,90,100,3.0,NO,1604120856
Golspie,57.97,-3.98,45.0,87,100,5.99,GB,1604120856
Slatina,44.43,24.37,45.0,87,0,3.36,RO,1604120857
Auly,48.53,34.49,48.2,81,90,6.71,UA,1604120857
Nybro,56.74,15.91,41.0,100,75,4.07,SE,1604120858
Semey,50.41,80.23,39.2,80,90,4.47,KZ,1604120858
Mount Vernon,40.91,-73.84,39.2,80,20,6.93,US,1604120858
Castelldefels,41.28,1.97,61.0,76,0,9.17,ES,1604120860
Madikeri,12.42,75.73,84.2,79,20,2.24,IN,1604120860
Ascension,30.22,-90.9,50.0,93,1,6.2,US,1604120860
Mahon,39.89,4.27,59.0,93,0,4.7,ES,1604120676
Sharjah city,25.36,55.4,77.0,64,0,3.36,AE,1604120587
Maumelle,34.87,-92.4,43.0,100,75,2.26,US,1604120862
Krasnoturansk,54.32,91.56,35.6,93,75,6.71,RU,1604120863
Daşoguz,41.84,59.97,41.0,48,0,9.17,TM,1604120863
Røros,62.57,11.38,35.6,92,100,1.12,NO,1604120863
Rio Grande,-32.03,-52.1,57.0,84,98,11.74,BR,1604120379
Sistranda,63.73,8.83,44.6,87,40,11.41,NO,1604120865
Boone,39.03,-92.33,46.0,61,0,1.99,US,1604120866
Bruneck,46.8,11.94,46.0,38,0,9.17,IT,1604120866
Grand Gaube,-20.01,57.66,73.99,44,0,13.0,MU,1604120440
Isla Mujeres,21.23,-86.73,75.2,94,90,8.05,MX,1604120867
Cabedelo,-6.98,-34.83,77.0,88,40,3.36,BR,1604120472
Wadi Maliz,36.47,8.55,50.0,87,20,6.93,TN,1604120868
Toktogul,41.87,72.94,25.0,88,0,0.81,KG,1604120869
Yarmouth,41.71,-70.23,44.01,55,75,9.17,US,1604120498
State College,40.79,-77.86,39.2,98,90,3.36,US,1604120703
Gijang,35.24,129.21,66.2,42,40,3.36,KR,1604120870
Maryville,35.76,-83.97,42.8,81,1,5.82,US,1604120870
Kurri Kurri,-32.82,151.48,78.01,31,26,8.01,AU,1604120681
Ballina,-28.87,153.57,73.4,94,75,19.46,AU,1604120871
Kozienice,51.58,21.55,44.01,97,1,3.96,PL,1604120871
Price,39.6,-110.81,39.2,48,1,11.41,US,1604120872
Kuznechnoye,61.12,29.87,39.99,89,80,5.59,RU,1604120873
Pagudpud,18.56,120.79,86.0,62,20,21.92,PH,1604120873
Izumo,35.37,132.77,64.4,52,40,13.87,JP,1604120873
Inuvik,68.35,-133.72,1.4,91,96,3.36,CA,1604120874
Novoselitskoye,44.75,43.44,48.2,93,78,4.47,RU,1604120875
Krasne,49.91,24.61,42.8,100,75,2.24,UA,1604120875
Aranjuez,40.03,-3.6,57.0,93,0,2.17,ES,1604120875
Phang Nga,8.45,98.53,87.8,70,20,9.17,TH,1604120875
Sonoita,31.85,-112.83,64.0,30,93,1.88,MX,1604120876
Murray Bridge,-35.12,139.27,59.0,76,2,5.01,AU,1604120876
Taylorville,39.55,-89.29,41.0,70,1,4.7,US,1604120877
Qasigiannguit,68.82,-51.19,19.4,73,99,2.24,GL,1604120878
Vertientes,21.26,-78.15,77.0,94,25,6.93,CU,1604120765
Nakhon Thai,17.1,100.84,87.8,74,75,6.93,TH,1604120879
Santa Cruz,30.42,-9.6,60.8,51,0,8.05,MA,1604120684
