City,Lat,Lng,Max Temp,Humidity,Cloudiness,Wind Speed,Country,Date
Yüksekova,37.57,44.29,39.2,60,40,0.83,TR,1604123800
Barrow,71.29,-156.79,3.2,84,20,6.93,US,1604123801
East London,-33.02,27.91,59.0,87,20,6.93,ZA,1604123801
Hermanus,-34.42,19.23,59.0,70,0,4.0,ZA,1604123514
Kavaratti,10.57,72.64,84.2,79,40,6.93,IN,1604123802
Bluff,-46.6,168.33,54.0,83,100,13.0,NZ,1604123802
Touros,-5.2,-35.46,75.2,94,75,11.41,BR,1604123803
Pisco,-13.7,-76.22,63.0,88,90,4.7,PE,1604123247
Alice Springs,-23.7,133.88,86.0,10,0,6.93,AU,1604123545
Saint Paul Harbor,57.79,-152.41,35.6,64,90,8.05,US,1604123804
Port Macquarie,-31.43,152.92,81.0,70,35,8.93,AU,1604123750
Punta Arenas,-53.15,-70.92,42.01,86,75,5.82,CL,1604123605
Tateyama,34.98,139.87,66.0,48,20,14.99,JP,1604123805
Kapaa,22.08,-159.32,75.2,73,1,4.7,US,1604123531
Albany,42.6,-73.97,28.99,87,33,3.49,US,1604123760
Saldanha,-33.01,17.94,51.8,71,0,4.7,ZA,1604123518
Yangi Marg`ilon,40.43,71.72,55.4,22,0,2.24,UZ,1604123806
Thompson,55.74,-97.86,17.6,85,90,9.17,CA,1604123208
Ushuaia,-54.8,-68.3,48.2,76,75,17.22,AR,1604123662
Mataura,-46.19,168.86,54.0,83,100,13.0,NZ,1604123807
Vaini,-21.2,-175.2,75.2,78,75,11.41,TO,1604123807
Tuktoyaktuk,69.45,-133.04,1.4,84,40,5.82,CA,1604123808
New Norfolk,-42.78,147.06,71.01,33,25,5.01,AU,1604123808
Busselton,-33.65,115.33,73.99,58,100,4.0,AU,1604123809
Katsuura,35.13,140.3,66.0,45,20,12.75,JP,1604123810
Carnarvon,-24.87,113.63,77.0,65,90,17.22,AU,1604123810
Souillac,-20.52,57.52,71.6,56,20,17.22,MU,1604123811
Esperance,-33.87,121.9,91.4,18,18,14.99,AU,1604123811
Obama,35.5,135.75,66.99,49,0,2.89,JP,1604123811
Avarua,-21.21,-159.78,75.2,78,96,12.75,CK,1604123237
Lata,40.16,-8.33,61.0,93,20,3.36,PT,1604123234
Naze,28.37,129.48,77.0,53,40,21.92,JP,1604123812
Bambous Virieux,-20.34,57.76,75.0,56,20,17.22,MU,1604123813
Dawson Creek,55.77,-120.24,10.4,92,1,4.29,CA,1604123684
Port Elizabeth,-33.92,25.57,59.0,77,20,6.93,ZA,1604123814
Cape Town,-33.93,18.42,62.01,58,0,17.22,ZA,1604123590
Kahului,20.89,-156.47,80.6,61,20,10.29,US,1604123614
Bredasdorp,-34.53,20.04,55.4,71,13,7.72,ZA,1604123815
Torbay,47.67,-52.73,34.0,55,90,14.99,CA,1604123816
La Ronge,55.1,-105.28,23.0,79,100,17.22,CA,1604123224
Papara,-3.98,-38.73,80.01,83,40,8.05,BR,1604123816
Cabo San Lucas,22.89,-109.91,73.99,76,65,1.01,MX,1604123711
Jamestown,42.1,-79.24,33.01,92,90,8.05,US,1604123711
Iqaluit,63.75,-68.51,19.4,73,90,10.29,CA,1604123240
Lompoc,34.64,-120.46,55.4,100,90,3.36,US,1604123819
Nikolskoye,59.7,30.79,44.01,93,90,4.47,RU,1604123819
Coyhaique,-45.58,-72.07,48.2,70,0,8.05,CL,1604123820
Kaitangata,-46.28,169.85,54.0,89,97,11.01,NZ,1604123820
Yellowknife,62.46,-114.35,12.2,85,75,9.17,CA,1604123783
Saint-Philippe,-21.36,55.77,75.2,50,75,21.92,RE,1604123821
Shiyan,32.65,110.78,60.01,33,88,5.5,CN,1604123821
Mahébourg,-20.41,57.7,71.6,56,20,17.22,MU,1604123822
Mission Bend,29.69,-95.66,57.2,87,1,2.89,US,1604123824
Ponta do Sol,32.67,-17.1,66.2,48,0,12.75,PT,1604123532
Ballina,-28.87,153.57,78.8,88,40,19.46,AU,1604123756
Ilām,26.92,87.92,87.8,43,20,6.93,NP,1604123826
Boa Vista,2.82,-60.67,77.0,88,90,9.17,BR,1604123826
Wilmington,34.23,-77.94,55.99,76,1,8.05,US,1604123686
Terrace,54.52,-128.6,35.6,93,90,6.93,CA,1604123549
Pitimbu,-7.47,-34.81,75.2,94,75,10.85,BR,1604123828
George Town,5.41,100.34,87.8,74,20,9.17,MY,1604123663
Bucerías,20.75,-105.33,80.6,78,75,3.76,MX,1604123829
Ta Khmau,11.48,104.95,89.6,62,40,3.36,KH,1604123829
Puerto Ayora,-0.74,-90.35,69.01,93,82,10.0,EC,1604123829
Saint George,37.1,-113.58,57.2,22,1,1.23,US,1604123571
San Patricio,28.02,-97.52,57.2,100,1,3.36,US,1604123252
Wajima,37.4,136.9,60.8,55,20,8.05,JP,1604123830
Klaksvík,62.23,-6.59,46.4,81,57,16.11,FO,1604123831
Jyvaskyla,62.24,25.72,36.0,100,90,5.82,FI,1604123831
Tasiilaq,65.61,-37.64,32.0,96,100,17.22,GL,1604123832
Hobart,-42.88,147.33,71.01,63,20,14.99,AU,1604123670
Hong Kong,22.29,114.16,75.99,62,28,1.01,HK,1604123594
Nhulunbuy,-12.23,136.77,87.8,58,2,13.87,AU,1604123833
Belle Glade,26.68,-80.67,75.0,92,74,10.87,US,1604123834
Shuangyang,43.52,125.67,50.0,76,75,22.37,CN,1604123835
Uberlândia,-18.92,-48.28,69.8,88,75,9.17,BR,1604123835
Karasjok,69.47,25.51,23.0,73,0,27.51,NO,1604123835
Hasaki,35.73,140.83,66.0,51,20,13.87,JP,1604123835
La Palma,33.85,-118.05,64.4,55,1,1.52,US,1604123661
Sept-Îles,50.2,-66.38,26.6,68,6,6.93,CA,1604123836
Ngunguru,-35.62,174.5,68.0,92,21,1.99,NZ,1604123836
Panjakent,39.5,67.61,59.0,21,0,4.7,TJ,1604123837
Tuatapere,-46.13,167.68,53.01,85,97,14.0,NZ,1604123252
Bethel,41.37,-73.41,30.0,92,1,5.64,US,1604123838
La Asuncion,11.03,-63.86,69.8,100,78,13.87,VE,1604123838
Houma,29.6,-90.72,48.99,100,1,5.53,US,1604123839
Bitung,1.45,125.18,89.6,66,40,6.93,ID,1604123840
Shimoda,34.67,138.95,62.6,48,20,14.99,JP,1604123841
Norman Wells,65.28,-126.83,6.8,84,75,4.7,CA,1604123841
Mar del Plata,-38.0,-57.56,51.01,93,0,5.82,AR,1604123744
Cap Malheureux,-19.98,57.61,73.99,43,0,13.0,MU,1604123247
Haines Junction,60.75,-137.51,17.6,72,100,4.7,CA,1604123842
Flinders,-34.58,150.86,70.0,68,35,7.0,AU,1604123843
Quatre Cocos,-20.21,57.76,75.0,56,20,17.22,MU,1604123843
Ancud,-41.87,-73.82,45.0,81,0,4.7,CL,1604123844
Nara,34.69,135.8,68.0,37,0,5.82,JP,1604123844
Asău,46.43,26.4,42.01,97,100,1.74,RO,1604123844
Hilo,19.73,-155.09,77.0,83,75,4.07,US,1604123817
Santa Cruz de la Sierra,-17.8,-63.17,71.6,43,40,14.99,BO,1604123845
Ilulissat,69.22,-51.1,19.4,73,98,3.36,GL,1604123563
Puli,23.97,120.97,84.0,47,63,5.14,TW,1604123818
Prince Rupert,54.32,-130.32,46.4,87,90,8.05,CA,1604123694
Río Gallegos,-51.62,-69.22,44.6,75,0,4.7,AR,1604123847
Kaohsiung City,22.62,120.31,82.4,58,75,8.05,TW,1604123847
Andenes,69.31,16.12,39.2,69,86,24.16,NO,1604123847
Laguna,38.42,-121.42,55.99,66,1,3.06,US,1604123848
Praia da Vitória,38.73,-27.07,69.8,94,40,16.84,PT,1604123848
Tondano,1.3,124.91,89.6,66,40,6.93,ID,1604123850
Havøysund,71.0,24.66,30.2,63,22,32.21,NO,1604123850
Faya,18.39,42.45,64.4,42,0,1.28,SA,1604123850
Kiruna,67.86,20.23,24.8,92,52,11.41,SE,1604123782
Griffith,41.53,-87.42,28.4,86,1,5.32,US,1604123851
Broome,42.25,-75.83,30.99,80,90,1.45,US,1604123851
Margate,51.38,1.39,57.99,72,25,4.0,GB,1604123558
Caniço,32.63,-16.85,66.2,48,0,12.75,PT,1604123853
Kiryat Gat,31.61,34.76,75.0,100,59,1.99,IL,1604123853
City of San Pedro,14.35,121.02,91.4,52,40,11.41,PH,1604123854
Mastic Beach,40.77,-72.85,35.6,86,1,10.42,US,1604123854
Antón Lizardo,19.05,-95.98,72.0,68,75,6.93,MX,1604123855
Hay River,60.82,-115.8,17.6,92,100,2.06,CA,1604123856
Akropong,5.97,-0.09,77.0,100,0,8.05,GH,1604123856
Matagami,49.75,-77.63,12.2,92,1,5.82,CA,1604123857
Olinda,-8.01,-34.86,80.6,78,40,6.93,BR,1604123857
Pacific Grove,36.62,-121.92,53.6,87,1,10.29,US,1604123776
Cayenne,4.93,-52.33,77.0,100,75,1.12,GF,1604123858
Vicuña,-30.03,-70.71,53.6,87,90,4.7,CL,1604123741
Lakefield,43.68,-95.17,37.99,74,40,20.8,US,1604123859
Bainbridge Island,47.63,-122.52,51.01,80,37,2.08,US,1604123837
Mbour,14.42,-16.96,77.0,65,0,18.34,SN,1604123860
Tautira,-17.73,-149.15,82.0,65,20,3.36,PF,1604123861
Mairiporã,-23.32,-46.59,60.8,87,75,9.17,BR,1604123861
Calbuco,-41.77,-73.13,44.6,93,0,5.82,CL,1604123862
Laas,46.62,10.7,42.01,100,0,1.12,IT,1604123862
Isawa,35.65,138.63,68.0,25,0,3.53,JP,1604123862
Narsaq,60.92,-46.05,21.2,79,86,3.94,GL,1604123863
Hof,50.32,11.92,50.0,99,98,5.99,DE,1604123863
Moorhead,46.87,-96.77,41.0,85,1,25.28,US,1604123863
Saint-Pierre,-21.34,55.48,75.2,50,75,21.92,RE,1604123864
Roald,62.58,6.13,44.6,81,0,6.93,NO,1604123864
Palmer,42.16,-72.33,24.01,92,1,2.33,US,1604123864
Calvià,39.57,2.51,54.0,87,0,4.7,ES,1604123865
Gien,47.69,2.63,44.01,92,51,1.01,FR,1604123866
Killybegs,54.63,-8.45,59.0,91,100,21.99,IE,1604123866
Porto Nacional,-10.71,-48.42,78.8,88,75,3.36,BR,1604123867
Cotonou,6.37,2.42,80.6,88,40,9.17,BJ,1604123867
Bershet',57.73,56.38,37.4,86,90,8.95,RU,1604123867
Riverton,40.52,-111.94,55.0,40,1,12.75,US,1604123868
Doha,25.29,51.53,89.01,62,0,6.93,QA,1604123831
Elko,41.0,-115.5,46.0,27,1,6.8,US,1604123770
Tornio,65.85,24.15,24.8,100,0,6.93,FI,1604123870
Salalah,17.02,54.09,86.0,30,0,5.75,OM,1604123870
Cartagena,10.4,-75.51,84.2,79,40,4.7,CO,1604123684
Lewisporte,49.25,-55.05,32.0,79,75,12.75,CA,1604123871
Geraldton,-28.77,114.6,71.6,64,90,14.99,AU,1604123871
Belmonte,-15.86,-38.88,75.2,83,0,6.93,BR,1604123872
Woodward,36.43,-99.39,51.8,61,1,16.11,US,1604123872
Kainan,34.15,135.2,66.99,51,20,4.7,JP,1604123872
San Quintín,30.48,-115.95,48.99,21,91,8.99,MX,1604123873
Liverpool,53.41,-2.98,59.0,87,75,26.4,GB,1604123770
Vila Velha,-20.33,-40.29,75.2,94,90,6.93,BR,1604123874
Smithers,54.78,-127.17,24.8,100,20,3.36,CA,1604123874
Northam,51.03,-4.22,57.99,93,99,15.99,GB,1604123726
Avera,33.19,-82.53,53.6,81,1,9.17,US,1604123875
Maceira,39.69,-8.89,60.01,93,20,3.36,PT,1604123875
Donskoye,45.46,41.97,51.8,87,0,6.71,RU,1604123876
Chaohu,31.6,117.87,68.0,60,83,6.71,CN,1604123876
Abhā,18.22,42.51,64.4,39,0,2.82,SA,1604123876
Isangel,-19.55,169.27,82.4,69,20,13.87,VU,1604123877
Tema,5.67,-0.02,77.0,100,0,8.05,GH,1604123878
Buxton,53.26,-1.91,55.99,92,98,5.01,GB,1604123798
Kenitra,34.26,-6.58,57.2,100,90,5.12,MA,1604123879
Kruisfontein,-34.0,24.73,57.99,79,0,1.74,ZA,1604123879
Kushiro,42.98,144.37,53.6,62,40,6.93,JP,1604123881
Fügen,47.35,11.85,46.0,91,4,3.74,AT,1604123881
Foz,43.57,-7.25,59.0,86,63,14.0,ES,1604123881
Alofi,-19.06,-169.92,75.2,88,99,16.11,NU,1604123882
Scarborough,54.28,-0.4,55.99,95,79,5.01,GB,1604123882
Petropavlovsk-Kamchatskiy,53.05,158.65,39.2,93,90,2.24,RU,1604123883
São Miguel do Iguaçu,-25.35,-54.24,69.8,73,75,9.17,BR,1604123885
Sakakah,29.97,40.21,64.4,15,0,5.19,SA,1604123885
Comodoro Rivadavia,-45.87,-67.5,50.0,61,0,3.36,AR,1604123885
Ponta Delgada,37.73,-25.67,69.8,94,75,16.11,PT,1604123667
Manta,-0.95,-80.73,73.4,83,75,5.82,EC,1604123886
Ho Chi Minh City,10.75,106.67,89.6,62,75,3.36,VN,1604123886
Den Helder,52.96,4.76,55.4,100,75,17.22,NL,1604123887
Agropoli,40.35,15.0,57.0,83,0,3.0,IT,1604123887
Port-Cartier,50.03,-66.87,26.6,68,6,6.93,CA,1604123888
Itupiranga,-5.13,-49.33,77.0,100,0,2.35,BR,1604123888
Schwerin,53.63,11.41,57.0,98,99,3.0,DE,1604123889
Sal Rei,16.18,-22.92,75.2,83,40,16.11,CV,1604123889
Grindavik,63.84,-22.43,42.8,81,75,23.04,IS,1604123889
Yulara,-25.24,130.99,86.0,9,31,8.05,AU,1604123890
Grand Gaube,-20.01,57.66,75.0,41,0,11.99,MU,1604123752
Hirara,24.8,125.28,80.6,57,20,16.11,JP,1604123891
Muros,42.78,-9.06,63.0,88,99,14.0,ES,1604123678
Yangliuqing,39.14,117.0,66.2,22,16,13.42,CN,1604123891
Oktyabr'skoye,43.06,44.74,50.0,87,79,2.24,RU,1604123892
Valparaíso,-33.04,-71.63,51.8,100,90,2.24,CL,1604123892
Warrensburg,38.76,-93.74,45.0,75,1,4.7,US,1604123892
Varde,55.62,8.48,48.2,100,25,3.36,DK,1604123893
Jackson,42.42,-122.83,59.0,54,1,3.36,US,1604123880
Buchanan,5.88,-10.05,77.0,94,75,4.88,LR,1604123894
Torrington,41.8,-73.12,27.0,96,0,5.08,US,1604123895
Eslöv,55.84,13.3,52.0,96,100,6.24,SE,1604123895
Hammerfest,70.66,23.68,30.2,63,27,32.21,NO,1604123896
Puerto Escondido,15.85,-97.07,75.2,50,40,6.93,MX,1604123897
Thurso,58.59,-3.53,48.2,76,100,25.28,GB,1604123897
Golden,39.76,-105.22,51.01,31,0,8.43,US,1604123897
Bariloche,-41.15,-71.31,52.0,49,0,11.41,AR,1604123604
Sitka,57.05,-135.33,46.4,87,90,13.87,US,1604123899
Llanelli,51.68,-4.16,57.99,100,100,31.09,GB,1604123899
Siswā Bāzār,27.15,83.77,84.2,58,20,5.82,IN,1604123900
Asunción,-25.3,-57.64,64.4,52,0,19.46,PY,1604123901
Valladolid,41.58,-4.67,44.6,93,1,3.36,ES,1604123901
Lauchhammer,51.5,13.8,55.0,100,75,9.17,DE,1604123901
Daşoguz,41.84,59.97,50.0,37,0,9.17,TM,1604123902
Half Moon Bay,37.46,-122.43,55.99,76,1,3.85,US,1604123902
Solhan,38.96,41.03,55.4,37,75,4.7,TR,1604123902
Lipari,38.47,14.95,61.0,90,18,1.99,IT,1604123903
Kamogawa,35.1,140.1,66.0,45,20,12.75,JP,1604123903
Broken Hill,-31.95,141.43,69.8,49,15,14.99,AU,1604123903
Maceió,-9.67,-35.74,75.2,94,75,11.14,BR,1604123903
Draguignan,43.53,6.47,55.0,100,90,1.12,FR,1604123904
Rio Grande,-32.03,-52.1,57.0,87,82,10.49,BR,1604123716
Mogadishu,2.04,45.34,82.4,69,75,11.41,SO,1604123779
Gold Coast,-28.0,153.43,66.2,82,40,14.99,AU,1604123793
Piteå,65.32,21.48,26.6,92,18,1.12,SE,1604123905
Nānākuli,21.39,-158.15,78.8,83,90,3.36,US,1604123906
Pojuca,-12.42,-38.33,78.8,83,40,10.29,BR,1604123906
Shingū,33.73,135.98,66.2,48,20,4.7,JP,1604123906
Udachny,66.42,112.4,3.2,84,90,2.24,RU,1604123907
Makakilo City,21.35,-158.09,78.8,83,90,3.36,US,1604123854
Mīnāb,27.15,57.08,86.0,33,0,4.7,IR,1604123908
Minot,48.23,-101.3,46.4,70,1,19.46,US,1604123908
Coquimbo,-29.95,-71.34,53.6,87,90,4.7,CL,1604123908
Carballo,43.21,-8.69,62.6,88,75,17.22,ES,1604123909
Noumea,-22.28,166.46,86.0,45,75,4.7,NC,1604123909
Hambantota,6.12,81.12,87.8,74,40,6.93,LK,1604123909
Empalme,27.97,-110.82,66.99,52,77,1.99,MX,1604123910
Imbituba,-28.24,-48.67,62.6,88,75,4.7,BR,1604123910
Krasnogorsk,55.82,37.32,41.0,93,75,2.24,RU,1604123911
Talnakh,69.49,88.4,14.0,85,75,33.55,RU,1604123911
Necochea,-38.55,-58.74,48.99,79,0,5.99,AR,1604123700
Waverley,-25.7,28.26,68.0,68,34,9.17,ZA,1604123912
Lübben,51.95,13.9,55.0,97,100,1.01,DE,1604123913
Canyon,34.98,-101.92,46.99,70,6,4.0,US,1604123914
Walvis Bay,-22.96,14.51,54.0,87,50,4.7,NA,1604123914
Conde,-7.26,-34.91,75.2,94,75,6.13,BR,1604123915
Isabela,6.71,121.97,87.8,70,75,8.05,PH,1604123915
Victor Harbor,-35.57,138.62,57.99,81,81,4.0,AU,1604123915
Santa Cruz,30.42,-9.6,59.0,51,0,6.93,MA,1604123681
Bathsheba,13.22,-59.52,80.6,88,75,14.99,BB,1604123916
Marquette,46.53,-87.63,30.0,59,0,5.01,US,1604123916
College,64.86,-147.8,10.4,78,90,6.93,US,1604123917
Ixtapa,20.7,-105.2,80.6,78,75,2.39,MX,1604123683
Itoman,26.12,127.67,80.6,51,40,18.34,JP,1604123918
Raudeberg,61.99,5.14,46.0,83,52,13.56,NO,1604123918
Guantánamo,20.14,-75.21,78.8,88,75,5.82,CU,1604123919
Husavik,66.04,-17.34,42.8,60,20,16.11,IS,1604123920
Pechenga,69.53,31.17,30.2,68,2,17.22,RU,1604123921
Monrovia,6.3,-10.8,77.0,94,75,4.65,LR,1604123923
Key West,24.56,-81.78,82.4,83,90,9.17,US,1604123836
Portland,45.52,-122.68,46.99,81,75,3.36,US,1604123840
Marsaxlokk,35.84,14.54,62.01,93,20,1.12,MT,1604123924
Tsimmerbude,54.67,20.13,46.4,87,75,6.71,RU,1604123924
Storforshei,66.4,14.52,37.0,91,100,1.01,NO,1604123925
Corvallis,44.56,-123.26,44.6,93,1,4.25,US,1604123817
Mount Isa,-20.73,139.5,93.2,13,15,8.05,AU,1604123925
Peniche,39.36,-9.38,60.01,90,42,2.95,PT,1604123801
La Providencia,28.72,-111.58,64.0,70,100,3.44,MX,1604123926
Ellsworth,44.54,-68.42,30.2,63,1,5.82,US,1604123927
Seoul,37.57,126.98,66.2,48,75,10.67,KR,1604123846
Nago,26.59,127.98,80.6,57,20,24.16,JP,1604123928
Zarechnyy,53.2,45.19,42.01,78,100,5.08,RU,1604123929
Murray Bridge,-35.12,139.27,57.0,81,2,5.01,AU,1604123929
Oistins,13.07,-59.53,80.6,88,75,14.99,BB,1604123929
Lufilufi,-13.87,-171.6,82.0,88,75,2.24,WS,1604123929
Labuan,5.28,115.24,84.2,74,40,3.36,MY,1604123930
Vila Franca do Campo,37.72,-25.43,69.8,94,75,16.11,PT,1604123930
Ürümqi,43.8,87.6,50.0,34,0,4.47,CN,1604123767
Gimli,50.63,-96.99,37.4,82,100,27.51,CA,1604123931
Pionerskiy,54.95,20.23,46.4,87,75,6.71,RU,1604123932
Buraidah,26.33,43.98,60.8,38,0,12.37,SA,1604123932
Requena,39.49,-1.1,55.0,93,0,2.24,ES,1604123933
Tiarei,-17.53,-149.33,82.0,65,20,3.36,PF,1604123933
Abnūb,27.27,31.15,66.2,77,0,13.87,EG,1604123934
Guaymas,27.93,-110.9,66.99,52,81,1.99,MX,1604123934
Brazzaville,-4.27,15.28,73.4,94,75,1.21,CG,1604123752
Kokkola,63.84,23.13,30.2,92,75,5.82,FI,1604123936
South River,40.45,-74.39,35.01,90,0,9.13,US,1604123936
Ylivieska,64.08,24.55,25.0,94,1,5.01,FI,1604123936
Maputo,-25.97,32.59,73.0,73,75,13.87,MZ,1604123938
Christchurch,-43.53,172.63,75.2,36,21,18.34,NZ,1604123909
Raton,36.9,-104.44,41.0,80,1,5.82,US,1604123938
Črnomelj,45.57,15.19,45.0,100,0,2.53,SI,1604123939
Kampot,10.62,104.18,86.0,74,40,6.93,KH,1604123939
Valley City,46.92,-98.0,35.6,100,1,12.75,US,1604123686
Cabañas,22.98,-82.92,78.8,100,75,1.12,CU,1604123940
Inhambane,-23.86,35.38,78.8,69,40,11.41,MZ,1604123940
Goderich,43.75,-81.72,33.8,74,85,4.7,CA,1604123940
Salinas,36.68,-121.66,55.99,93,90,3.04,US,1604123941
Goranboy,40.61,46.79,57.2,100,90,3.96,AZ,1604123941
Homer,59.64,-151.55,28.0,45,1,4.7,US,1604123941
Cabra,37.47,-4.44,57.99,93,0,1.61,ES,1604123941
Sioux Lookout,50.1,-91.92,32.0,95,90,8.05,CA,1604123943
Williams Lake,52.14,-122.14,30.2,86,20,3.36,CA,1604123943
Pahrump,36.21,-115.98,52.0,28,0,2.37,US,1604123762
Bonavista,48.65,-53.11,35.01,86,99,3.36,CA,1604123944
Kloulklubed,7.04,134.26,87.8,70,75,12.75,PW,1604123945
Leticia,-4.22,-69.94,71.6,100,90,2.24,CO,1604123945
Hamilton,39.18,-84.53,39.2,86,90,3.22,US,1604123946
Fortuna,40.6,-124.16,48.99,93,1,3.36,US,1604123946
Port-Gentil,-0.72,8.78,78.8,94,75,3.36,GA,1604123947
Marabá,-5.37,-49.12,77.0,100,0,0.76,BR,1604123947
Pochutla,15.74,-96.47,75.0,91,100,4.03,MX,1604123947
Clyde River,70.47,-68.59,15.8,85,90,3.36,CA,1604123948
Davila,18.47,120.58,86.0,62,20,21.92,PH,1604123948
Sinop Province,41.77,34.87,53.6,100,40,4.7,TR,1604123949
Adelaide,-34.93,138.6,63.0,51,75,14.99,AU,1604123918
Dakar,14.69,-17.44,77.0,65,0,18.34,SN,1604123855
Ararat,39.83,44.7,60.8,58,20,3.71,AM,1604123950
Queanbeyan,-35.35,149.23,53.6,87,90,4.7,AU,1604123951
Nouadhibou,20.93,-17.03,66.2,93,75,18.34,MR,1604123951
Qaqortoq,60.72,-46.03,21.2,79,87,3.38,GL,1604123951
Syracuse,37.09,15.28,55.4,100,0,3.36,IT,1604123951
Denham Springs,30.49,-90.96,50.0,93,1,5.57,US,1604123952
North Bend,43.41,-124.22,54.0,100,1,6.93,US,1604123952
The Valley,18.22,-63.06,82.4,74,20,8.05,AI,1604123780
Arden,56.77,9.86,45.0,97,17,3.62,DK,1604123953
Brae,60.4,-1.35,50.0,76,90,18.34,GB,1604123953
Fort Collins,40.59,-105.08,42.01,69,1,6.93,US,1604123761
Morón,-34.65,-58.62,57.0,98,0,2.55,AR,1604123954
Mashhad,36.3,59.61,62.6,25,0,2.51,IR,1604123827
La Tuque,47.43,-72.78,14.0,92,0,1.12,CA,1604123955
Lamar,33.67,-95.58,45.0,87,1,6.93,US,1604123955
Albanel,48.88,-72.45,15.8,85,0,6.93,CA,1604123955
Kununurra,-15.77,128.73,102.2,20,40,10.29,AU,1604123956
Hanna,51.63,-111.9,30.99,80,65,11.99,CA,1604123956
Nelson Bay,-32.72,152.15,79.0,24,40,19.46,AU,1604123957
Crowley,30.21,-92.37,50.0,91,0,6.87,US,1604123957
Nova Granada,-20.53,-49.31,64.4,68,0,9.17,BR,1604123957
Black River,18.03,-77.85,80.6,83,40,2.24,JM,1604123959
Kailua,21.4,-157.74,77.0,78,40,6.93,US,1604123959
Puerto del Rosario,28.5,-13.86,69.8,73,0,6.93,ES,1604123960
Winfield,37.24,-97.0,48.99,70,1,6.93,US,1604123807
Road Town,18.42,-64.62,82.0,85,66,18.01,VG,1604123962
South Shields,55.0,-1.43,53.01,87,73,4.7,GB,1604123963
‘Ewa Beach,21.32,-158.01,78.8,83,90,3.36,US,1604123772
Souris,49.62,-100.26,41.0,93,75,4.7,CA,1604123964
Guánica,17.97,-66.91,78.01,83,100,1.01,PR,1604123964
Abu Dhabi,24.47,54.37,77.0,69,0,5.82,AE,1604123949
Qeshm,26.96,56.27,86.0,33,0,4.7,IR,1604123965
Pascagoula,30.37,-88.56,51.8,81,1,4.7,US,1604123723
Deep River,46.1,-77.5,23.0,73,1,2.24,CA,1604123966
Östersund,63.18,14.64,37.99,100,100,6.93,SE,1604123966
Ardakān,32.31,54.02,59.0,22,0,4.7,IR,1604123871
Bolshevik,54.01,27.57,37.4,100,75,2.24,BY,1604123967
Nichinan,31.6,131.37,66.2,55,75,10.29,JP,1604123967
Paphos,34.77,32.42,68.0,72,20,3.36,CY,1604123779
Ulaanbaatar,47.91,106.88,26.6,58,20,11.18,MN,1604123719
Mateare,12.24,-86.43,77.0,88,40,4.7,NI,1604123968
Meadow Lake,34.8,-106.54,51.01,61,75,3.36,US,1604123969
Saint-Joseph,-21.37,55.62,75.2,50,75,21.92,RE,1604123969
Stelle,53.38,10.11,57.99,93,100,5.82,DE,1604123969
Diofior,14.18,-16.67,77.0,65,0,18.34,SN,1604123969
Kisumu,-0.1,34.76,68.0,88,75,3.36,KE,1604123970
Rockland,41.17,-74.05,32.0,95,18,3.87,US,1604123970
St. Marys,30.73,-81.55,69.8,73,75,12.75,US,1604123970
Sabaudia,41.3,13.03,55.99,85,4,1.99,IT,1604123971
Port Hedland,-20.32,118.57,93.2,44,0,20.8,AU,1604123972
Ulladulla,-35.35,150.47,68.0,68,40,8.05,AU,1604123737
Marsá Maţrūḩ,31.35,27.25,66.2,72,40,5.82,EG,1604123972
Rockhampton,-23.38,150.5,89.6,43,40,13.87,AU,1604123974
Anadyr,64.75,177.48,8.6,84,40,8.95,RU,1604123769
Locri,38.24,16.26,55.4,76,0,6.93,IT,1604123975
Raymond,43.9,-70.47,27.0,86,44,3.47,US,1604123806
Chapais,49.78,-74.85,6.8,92,1,4.7,CA,1604123976
Carlyle,38.61,-89.37,41.0,82,0,7.05,US,1604123977
Kollam,8.88,76.6,87.8,62,20,4.7,IN,1604123977
Havelock,34.88,-76.9,55.99,66,1,13.87,US,1604123977
Praia,14.92,-23.51,77.0,78,0,25.28,CV,1604123978
Natal,-5.79,-35.21,75.2,94,75,12.75,BR,1604123937
Xucheng,20.35,110.13,80.6,69,75,17.9,CN,1604123979
Orosháza,46.57,20.67,54.0,94,100,5.99,HU,1604123979
Balikpapan,-1.27,116.83,84.2,79,20,6.93,ID,1604123980
Whitehorse,60.72,-135.05,17.6,78,90,9.17,CA,1604123748
Byron Bay,-28.65,153.62,73.0,88,40,19.46,AU,1604123784
Shellbrook,53.22,-106.4,23.0,92,90,12.75,CA,1604123981
George,-33.96,22.46,57.2,76,0,3.49,ZA,1604123981
Virginia Beach,36.85,-75.98,53.01,67,3,1.01,US,1604123459
Tomigusuku,26.18,127.67,80.6,51,40,18.34,JP,1604123982
Wilhelmshaven,53.52,8.13,57.2,93,95,5.82,DE,1604123983
Ostër,50.95,30.88,46.0,100,100,9.6,UA,1604123983
Mount Gambier,-37.83,140.77,57.2,67,90,13.87,AU,1604123984
Shëngjin,41.81,19.59,46.4,93,0,2.24,AL,1604123984
Oxbow,49.23,-102.17,48.99,80,82,8.01,CA,1604123985
Cabedelo,-6.98,-34.83,75.2,94,75,10.38,BR,1604123986
Teguise,29.06,-13.56,71.6,56,0,10.29,ES,1604123987
Henties Bay,-22.12,14.28,54.0,91,42,5.01,NA,1604123987
Devils Lake,48.11,-98.87,41.0,80,1,26.4,US,1604123987
Port Hardy,50.7,-127.42,46.4,93,20,5.82,CA,1604123988
Gaza,31.5,34.47,75.0,100,54,1.99,PS,1604123988
Kashgar,39.45,75.98,51.8,15,0,2.24,CN,1604123989
Rome,43.21,-75.46,26.6,79,1,0.85,US,1604123990
Paralímni,35.04,33.98,69.8,73,20,5.82,CY,1604123990
Tianpeng,30.99,103.94,68.0,82,0,4.47,CN,1604123990
Serafimovich,49.58,42.74,51.01,92,100,1.01,RU,1604123991
Macamic,48.75,-79.0,6.8,84,5,7.14,CA,1604123991
Chirongui,-12.93,45.15,80.6,65,90,13.87,YT,1604123991
Burnie,-41.07,145.92,68.0,54,10,5.01,AU,1604123992
Setermoen,68.86,18.35,26.01,92,0,20.8,NO,1604123993
Porto-Novo,6.5,2.6,80.6,88,40,9.17,BJ,1604123994
Venice,27.1,-82.45,68.0,77,90,11.41,US,1604123995
Waipawa,-41.41,175.52,62.6,88,95,24.16,NZ,1604123995
Cabo Rojo,18.09,-67.15,79.0,95,100,10.56,PR,1604123995
Şabyā,17.15,42.63,86.0,66,0,8.05,SA,1604123995
Talcahuano,-36.72,-73.12,51.8,93,0,3.36,CL,1604123996
Cairns,-16.92,145.77,87.01,62,2,6.93,AU,1604123742
Areosa,41.72,-8.86,63.0,87,75,6.93,PT,1604123996
Rapid Valley,44.06,-103.15,61.0,25,1,9.17,US,1604123997
Honiara,-9.43,159.95,86.0,70,40,6.93,SB,1604123997
Bintulu,3.17,113.03,89.6,62,40,6.93,MY,1604123997
Sai Buri,6.7,101.62,86.0,70,20,6.93,TH,1604123998
Nantucket,41.28,-70.1,43.0,59,20,12.75,US,1604123999
Médéa,36.26,2.75,46.4,100,0,3.56,DZ,1604123999
Fukuechō,32.69,128.84,62.6,48,20,6.93,JP,1604123999
Meshcherino,55.2,38.36,41.0,86,75,2.24,RU,1604123754
Brownsville,25.9,-97.5,59.0,87,1,3.36,US,1604124000
Outram,1.28,103.84,91.4,66,75,8.05,MY,1604124002
Skibbereen,51.55,-9.27,57.2,93,75,29.97,IE,1604124003
Fairbanks,64.84,-147.72,10.99,85,90,2.33,US,1604123999
Ceres,37.59,-120.96,54.0,76,1,3.36,US,1604123970
Hernani,43.27,-1.98,55.99,93,0,2.24,ES,1604124005
Soyo,-6.13,12.37,73.4,94,75,6.93,AO,1604123776
Lieto,60.51,22.46,44.6,100,90,3.36,FI,1604124007
Wairoa,-39.03,177.37,70.0,63,100,4.0,NZ,1604124009
Muroto-misakicho,33.28,134.15,68.0,34,20,8.05,JP,1604124011
San Ramon,37.78,-121.98,57.99,58,1,2.55,US,1604124008
Örnsköldsvik,63.29,18.72,35.6,100,100,3.36,SE,1604124012
General Roca,-39.03,-67.58,57.2,54,0,2.24,AR,1604124012
Hauterive,46.09,3.45,48.0,86,0,3.36,FR,1604124013
Ashland,40.82,-82.27,35.6,80,90,2.08,US,1604123920
Lexington,37.99,-84.48,36.0,86,1,3.36,US,1604123803
Oranjestad,12.52,-70.03,80.6,88,20,5.82,AW,1604124016
Salta,-24.79,-65.41,55.4,62,0,3.36,AR,1604124005
Chlum u Třeboně,48.96,14.93,52.0,83,95,5.01,CZ,1604124020
Kaeo,-35.1,173.78,68.0,92,52,1.99,NZ,1604124021
Genç,38.75,40.56,55.4,37,75,4.7,TR,1604124022
Ada,43.42,-116.13,52.0,43,1,8.05,US,1604124023
Assiut,27.18,31.18,66.2,77,0,13.87,EG,1604124024
Praia,14.92,-23.51,77.0,78,0,25.28,CV,1604123729
Port Pirie,-33.18,138.02,64.4,63,40,13.87,AU,1604124025
New Richmond,45.12,-92.54,35.6,64,1,9.17,US,1604123762
Gloversville,43.05,-74.34,28.0,100,1,3.36,US,1604124026
Saint-Ambroise,48.55,-71.33,25.0,85,23,5.82,CA,1604124026
Yārāda,17.65,83.27,89.6,43,66,6.93,IN,1604123746
Aykhal,66.0,111.5,3.2,84,90,2.24,RU,1604123731
Dunedin,-45.87,170.5,53.01,89,96,1.01,NZ,1604123973
Almeria,37.17,-2.33,64.4,48,0,13.87,ES,1604124028
Sandy Bay,-42.91,147.35,70.0,63,20,14.99,AU,1604124029
Hvolsvollur,63.75,-20.22,37.99,96,52,14.0,IS,1604124029
Edgewater,28.99,-80.9,69.8,73,40,8.05,US,1604124029
Antofagasta,-23.65,-70.4,59.0,77,90,6.93,CL,1604124030
High Level,58.52,-117.14,23.0,100,75,5.82,CA,1604124032
Yanam,16.73,82.22,87.8,48,78,5.82,IN,1604124032
Morro Bay,35.37,-120.85,60.01,87,1,2.98,US,1604124033
Newport,51.59,-3.0,59.0,98,97,3.0,GB,1604123925
Bratsk,56.13,101.61,23.0,79,75,13.42,RU,1604124037
Bowen,-20.02,148.23,91.4,41,0,16.11,AU,1604124038
Tōkamachi,37.13,138.77,61.0,59,8,1.01,JP,1604124038
Tromsø,69.65,18.96,33.8,59,0,24.16,NO,1604123795
Eatonton,33.33,-83.39,55.0,75,0,5.01,US,1604124039
Payson,40.04,-111.73,48.99,55,1,7.43,US,1604123866
Slave Lake,55.28,-114.77,30.2,92,90,24.16,CA,1604124004
Saravan,39.72,45.65,59.0,44,75,4.7,AM,1604124041
Clarence Town,-32.58,151.78,79.0,24,40,19.46,AU,1604124042
Yuxia,34.06,108.63,64.4,42,0,4.47,CN,1604124042
Olean,42.08,-78.43,32.0,74,90,4.7,US,1604124045
Lerwick,60.15,-1.15,50.0,76,89,18.34,GB,1604124045
Melchor de Mencos,17.07,-89.15,73.4,94,90,6.93,GT,1604124047
Bairiki Village,1.33,172.98,84.2,70,20,11.41,KI,1604124047
Lufkin,31.34,-94.73,48.2,76,1,3.36,US,1604124022
Akdepe,42.06,59.38,51.8,37,0,9.17,TM,1604124049
Port Said,31.26,32.28,75.2,73,40,13.87,EG,1604124050
Bosaso,11.28,49.18,84.2,70,20,18.34,SO,1604124050
Bismarck,46.81,-100.78,42.8,81,1,6.93,US,1604124051
Varniai,55.74,22.36,44.01,100,90,5.82,LT,1604124053
San Jose,37.34,-121.89,60.01,76,40,1.1,US,1604123997
Aklavik,68.22,-135.01,1.4,84,99,3.36,CA,1604124054
Sulęcin,52.44,15.12,50.0,93,90,3.36,PL,1604124054
Hearst,49.68,-83.67,19.4,85,0,3.36,CA,1604124055
Örebro,59.27,15.21,41.0,93,90,5.82,SE,1604124056
Windhoek,-22.56,17.08,69.8,40,71,6.93,NA,1604124057
Kitakata,37.65,139.87,62.01,47,20,4.7,JP,1604124057
Caibarién,22.52,-79.47,75.2,94,0,4.7,CU,1604124057
Calafell,41.2,1.57,60.01,87,0,5.82,ES,1604124058
Powell River,49.85,-124.54,42.8,70,20,4.7,CA,1604124058
Mineros,-17.12,-63.23,71.6,43,40,14.99,BO,1604124058
Bozeman,45.68,-111.04,41.0,51,1,6.93,US,1604124059
Otane,-39.88,176.63,66.99,69,98,4.0,NZ,1604124060
Champerico,14.3,-91.92,64.99,96,21,7.16,GT,1604124060
Mackay,-21.15,149.2,86.0,55,5,19.46,AU,1604124062
Guarapari,-20.67,-40.5,75.2,94,90,6.93,BR,1604124065
Camacha,33.08,-16.33,64.4,88,40,4.7,PT,1604124066
Turaif,31.67,38.66,62.6,25,75,4.7,SA,1604124067
Havre-St-Pierre,50.23,-63.6,12.2,85,0,4.7,CA,1604124067
Acajutla,13.59,-89.83,71.01,98,57,6.13,SV,1604124068
Morgan City,29.7,-91.21,53.6,100,1,5.7,US,1604124069
Montes Altos,-5.83,-47.07,78.8,94,40,2.24,BR,1604124071
Mandurah,-32.55,115.7,73.0,60,97,8.05,AU,1604124072
Mindyak,54.02,58.79,37.4,59,20,11.18,RU,1604124075
Fort Nelson,58.81,-122.7,14.0,92,20,4.7,CA,1604124004
Porvoo,60.39,25.67,39.99,100,75,3.36,FI,1604124076
Pingliang,35.54,106.69,48.0,56,0,8.01,CN,1604124076
Barsovo,61.17,73.17,33.8,100,75,11.18,RU,1604124077
Elizabeth City,36.29,-76.25,55.4,71,90,10.29,US,1604124079
San Miguel de Tucumán,-26.82,-65.22,59.0,51,0,6.93,AR,1604123784
Sault Ste. Marie,46.52,-84.33,30.2,68,1,5.82,CA,1604124003
Kungsbacka,57.49,12.08,50.0,93,40,9.17,SE,1604124052
Drahovo,48.24,23.55,45.0,93,99,4.7,UA,1604124082
Prince Albert,53.2,-105.77,23.0,92,90,12.75,CA,1604124004
Le Port,-20.94,55.29,77.0,38,0,24.16,RE,1604124083
Manila,14.6,120.98,91.4,52,40,11.41,PH,1604124084
Praxédis Guerrero,31.37,-106.02,57.99,47,75,6.93,MX,1604124086
Taiyuan,37.87,112.56,59.0,24,0,6.71,CN,1604124043
Muskegon,43.3,-86.13,33.8,64,90,4.12,US,1604124087
Salé,34.04,-6.82,57.2,100,90,3.67,MA,1604123973
Arrondissement de Saint-Denis,48.92,2.33,54.0,87,90,9.17,FR,1604124088
Pooler,32.12,-81.25,60.8,72,1,8.05,US,1604124091
Visby,57.64,18.3,43.0,100,35,5.82,SE,1604124091
Rypefjord,70.63,23.67,30.2,63,26,32.21,NO,1604124092
Province of Vibo Valentia,38.7,16.13,53.6,100,65,2.24,IT,1604124094
Livingston,55.9,-3.52,48.99,87,75,8.05,GB,1604123837
Bereda,43.27,-7.54,59.0,86,60,14.0,ES,1604124095
Dorado,18.46,-66.27,79.0,91,100,5.01,PR,1604123997
Iranshahr,27.2,60.68,73.4,7,0,0.96,IR,1604124036
Arrondissement de Vire,48.92,-0.83,53.6,93,75,14.99,FR,1604124097
Upata,8.01,-62.4,77.0,93,100,6.06,VE,1604124098
Yelizovo,53.19,158.38,39.2,93,90,2.24,RU,1604124098
Hlyboka,48.09,25.93,42.8,100,75,3.87,UA,1604124099
Moose Factory,51.26,-80.61,26.6,63,90,8.05,CA,1604124100
Tolbazy,54.02,55.88,41.0,60,40,13.42,RU,1604124101
San Angelo,31.46,-100.44,50.0,75,1,4.7,US,1604124102
Mirny,62.54,113.96,3.2,77,37,6.71,RU,1604124102
Knysna,-34.04,23.05,57.2,76,0,2.95,ZA,1604124103
Neuquén,-38.95,-68.06,57.2,54,0,2.24,AR,1604123866
Isla Mujeres,21.23,-86.73,75.0,100,90,6.93,MX,1604124105
Mayo,38.89,-76.51,46.99,70,90,5.82,US,1604124105
Tai’an,36.19,117.12,66.99,60,99,1.01,CN,1604124106
Arrondissement de Blois,47.58,1.33,42.8,100,90,6.38,FR,1604124106
Namtsy,62.72,129.67,-2.2,77,0,2.24,RU,1604124108
Eureka,40.8,-124.16,48.0,93,1,3.36,US,1604124108
Mikhaylovka,50.06,43.24,51.01,92,100,1.01,RU,1604124109
Brigantine,39.41,-74.36,41.0,86,1,8.05,US,1604124111
Petrolina,-9.4,-40.5,78.8,74,0,14.99,BR,1604124023
Puri,19.8,85.85,84.2,62,20,10.29,IN,1604124111
Borda da Mata,-22.27,-46.17,62.01,83,94,3.18,BR,1604124112
Bow Island,49.87,-111.37,50.0,46,68,8.05,CA,1604124113
Le Mars,42.79,-96.17,45.0,75,1,11.41,US,1604124114
Collinsville,38.67,-89.98,41.0,100,1,7.23,US,1604124015
Suleja,9.18,7.18,73.4,94,0,2.24,NG,1604123914
Komatipoort,-25.43,31.95,73.99,68,79,6.93,ZA,1604124115
Ibanda,-2.8,32.47,66.2,93,75,3.33,TZ,1604124116
Borisoglebskiy,57.26,39.15,39.2,86,90,2.24,RU,1604124117
İstisu,40.95,48.07,48.2,87,99,2.84,AZ,1604124117
Kortkeros,61.81,51.58,32.0,98,90,4.47,RU,1604124117
Sturgeon Falls,46.36,-79.93,15.8,85,1,2.24,CA,1604124119
Guadalupe Victoria,32.29,-115.11,71.6,26,20,4.38,MX,1604124119
Krasnyy Yar,46.53,48.35,53.6,66,75,8.95,RU,1604124119
San Francisco,37.77,-122.42,55.99,87,20,8.05,US,1604123849
Marathon,44.9,-89.77,28.0,73,1,4.7,US,1604124120
Avilés,43.55,-5.92,53.6,76,20,10.29,ES,1604124121
Mantamádos,39.31,26.33,60.8,59,0,8.05,GR,1604124122
Jieshi,22.81,115.83,82.99,47,20,1.99,CN,1604124124
Edremit,39.6,27.02,51.8,62,0,10.29,TR,1604124124
Oakdale,44.96,-92.96,37.99,64,1,9.17,US,1604124125
Mitchell,43.71,-98.03,44.6,70,1,18.34,US,1604124125
Swellendam,-34.02,20.44,55.4,71,0,4.85,ZA,1604124126
Terme,41.21,36.97,60.8,87,75,3.2,TR,1604124127
Waldoboro,44.1,-69.38,30.2,58,1,5.5,US,1604124128
Marawi,8.0,124.29,84.0,75,81,3.0,PH,1604124129
Kiama,-34.68,150.87,70.0,68,54,7.0,AU,1604124130
Nemuro,43.32,145.57,48.2,66,75,9.17,JP,1604124131
Arrondissement de Lannion,48.75,-3.42,57.2,87,0,17.22,FR,1604124132
Shelburne,44.08,-80.2,25.0,80,3,4.74,CA,1604124003
Nishihara,26.18,127.76,80.6,42,75,20.8,JP,1604124133
Cascais,38.7,-9.42,62.01,89,33,2.68,PT,1604124133
Corrales,35.24,-106.61,50.0,56,83,1.01,US,1604123938
Port Hawkesbury,45.62,-61.35,33.01,90,90,4.7,CA,1604124134
Drayton Valley,53.22,-114.99,30.0,75,35,11.01,CA,1604124133
Arica,-18.48,-70.3,57.0,83,85,3.0,CL,1604123972
Porterville,36.07,-119.02,64.0,58,1,5.82,US,1604124095
Yarmouth,41.71,-70.23,44.01,60,75,5.82,US,1604124137
Semey,50.41,80.23,41.0,69,90,2.24,KZ,1604123980
Hondomachi-hondo,32.45,130.2,66.2,48,20,5.82,JP,1604124140
Gävle,60.67,17.14,37.99,98,90,1.01,SE,1604124141
Nome,64.5,-165.41,21.2,79,1,12.75,US,1604124142
Granville,-33.83,151.02,68.0,72,75,21.92,AU,1604124142
Inuvik,68.35,-133.72,1.4,84,96,3.36,CA,1604124144
Eilat,29.56,34.95,75.2,64,0,9.17,IL,1604124117
Perth,-31.93,115.83,73.99,56,0,6.93,AU,1604124065
Trat,12.5,102.5,91.4,66,75,2.24,TH,1604124145
Sistranda,63.73,8.83,42.8,87,40,5.82,NO,1604124146
Bay Roberts,47.6,-53.26,34.0,66,100,3.0,CA,1604124148
Philadelphia,39.95,-75.16,41.0,69,40,6.93,US,1604123946
San Miguel de Cozumel,20.51,-86.95,75.0,100,90,6.93,MX,1604124148
Todos Santos,23.45,-110.22,73.0,70,49,4.52,MX,1604124150
San Ignacio,17.16,-89.07,73.4,94,90,6.93,BZ,1604123896
Apache Junction,33.42,-111.55,70.0,25,75,8.05,US,1604124150
Almazar,40.32,69.01,55.4,30,0,15.66,UZ,1604124151
Ishigaki,24.34,124.16,77.0,73,75,16.11,JP,1604124151
Emerald,-23.53,148.17,96.8,9,0,11.41,AU,1604124152
Saint-Félicien,48.65,-72.45,15.8,85,20,8.05,CA,1604124152
Brejo Santo,-7.49,-38.99,80.6,61,40,3.4,BR,1604124152
Calvillo,21.85,-102.72,62.6,29,5,16.11,MX,1604124153
Nueva Imperial,-38.73,-72.95,46.4,100,90,0.6,CL,1604124153
Hoquiam,46.98,-123.89,46.99,81,1,6.24,US,1604124153
Aras,42.56,-2.36,37.4,93,0,2.24,ES,1604124154
Los Llanos de Aridane,28.66,-17.92,73.4,33,20,11.41,ES,1604124154
Verkhnetulomskiy,68.61,31.8,28.4,86,75,6.71,RU,1604124155
Siilinjärvi,63.08,27.67,30.2,92,90,4.7,FI,1604124156
Chapada dos Guimarães,-15.46,-55.75,77.0,78,0,5.82,BR,1604124157
Penzance,50.12,-5.54,57.2,93,99,31.09,GB,1604124158
Hobbs,32.7,-103.14,51.01,48,1,6.93,US,1604124158
Serra,-20.13,-40.31,75.2,94,90,6.93,BR,1604124120
Pulsano,40.38,17.36,61.0,76,85,1.99,IT,1604124159
Châlons-en-Champagne,48.95,4.37,48.2,93,0,9.17,FR,1604124160
Swakopmund,-22.68,14.53,55.0,87,49,4.7,NA,1604124160
Severodvinsk,64.56,39.83,32.0,82,75,2.24,RU,1604124160
Warrnambool,-38.38,142.48,59.0,73,62,1.01,AU,1604124161
Hope,33.67,-93.59,48.0,87,1,3.74,US,1604124077
Sabzawār,36.21,57.68,53.6,23,0,11.41,IR,1604123994
Bregenz,47.5,9.75,44.6,100,90,3.36,AT,1604124162
Takaungu,-3.68,39.86,82.4,88,75,5.82,KE,1604124163
Santa Marta,11.24,-74.2,80.01,87,66,3.49,CO,1604123983
Kota Bharu,6.13,102.24,86.0,74,40,5.82,MY,1604124164
Sandwick,60.0,-1.25,50.0,76,92,18.34,GB,1604124166
Marrakesh,31.63,-8.01,59.0,47,0,3.36,MA,1604124051
